     2.11           OBSERVATION DATA    G (GPS)             RINEX VERSION / TYPE
teqc  2013Nov15     NGS Web User        20150526 18:10:55UTCPGM / RUN BY / DATE
Solaris 5.10|UltraSparc IIIi|cc -m64 SS12.1|=+|*Sparc       COMMENT
teqc  2014Jan16     CORS-ADM Account    20141112 20:10:48UTCCOMMENT
Solaris x86 5.10|AMD64|cc SC5.8 -xarch=amd64|=+|=+          COMMENT
teqc  2014Jan16     CORS-ADM Account    20141012 01:21:06UTCCOMMENT
     2.10           OBSERVATION DATA    G (GPS)             COMMENT
NSTB2RINEX 2.06     NOAA/NOS/NGS/CORS   20141012 01:20:35UTCCOMMENT
Forced Modulo Decimation to 30 seconds                      COMMENT
ZMP1                                                        MARKER NAME
Tom McHugh          FAA                                     OBSERVER / AGENCY
7BC1                NOV WAASGII         2.003               REC # / TYPE / VERS
unknown             MPL_WAAS_2225NW NONE                    ANT # / TYPE
  -249977.5300 -4539298.5130  4458954.8020                  APPROX POSITION XYZ
        0.0000        0.0000        0.0000                  ANTENNA: DELTA H/E/N
     1     1                                                WAVELENGTH FACT L1/2
     7    L1    L2    P1    P2    C1    S1    S2            # / TYPES OF OBSERV
    30.0000                                                 INTERVAL
teqc windowed: start @ 2014 Oct 11 15:00:00.000             COMMENT
teqc windowed:  end  @ 2014 Oct 11 16:00:00.000             COMMENT
teqc edited: all GLONASS satellites excluded                COMMENT
  2014    10    11    15     0    0.0000000     GPS         TIME OF FIRST OBS
                                                            END OF HEADER
 14 10 11 15  0  0.0000000  0 12G01G02G04G06G11G12G17G20G24G28G30G32
 120732658.4044   94077406.1104                   22974678.8444   22974664.0214
        44.3004         41.8004
 132606270.5984  103329585.1044                   25234147.4434   25234134.8024
        40.3004         36.2004
 119150103.6404   92844256.1084                   22673526.7364   22673514.6134
        45.8004         39.9004
 116913208.5914   91101225.2154                   22247848.8634   22247836.8084
        49.6004         44.5004
 130984211.9494  102065608.8354                   24925487.6474   24925470.2994
        36.2004         34.6004
 133990905.9944  104408512.4944                   25497629.0654   25497621.4854
        36.1004         32.6004
 108140313.2994   84265194.3674                   20578422.7674   20578414.9594
        55.9004         51.1004
 122332746.6624   95324257.1434                   23279149.2654   23279138.8904
        44.8004         39.2004
 122318988.0264   95313509.1974                   23276537.6794   23276526.9154
        44.9004         41.9004
 111301452.8914   86728414.9644                   21179971.9434   21179963.4324
        53.0004         45.6004
 130446191.9484  101646365.3014                   24823125.2604   24823107.0834
        41.6004         38.4004
 129075335.9184  100578199.3654                   24562233.1284   24562219.0264
        37.7004         35.6004
 14 10 11 15  0 30.0000000  0 12G01G02G04G06G11G12G17G20G24G28G30G32
 120822172.1284   94147157.0054                   22991711.5734   22991698.8594
        45.0004         40.7004
 132501574.9254  103248004.0044                   25214224.6024   25214212.4804
        41.2004         36.6004
 119240733.6154   92914876.7874                   22690772.3214   22690760.7504
        45.7004         39.1004
 116817303.0054   91026493.6444                   22229600.2514   22229586.7674
        49.8004         44.2004
 131097190.7894  102153644.1744                   24946984.8664   24946971.2284
        36.3004         33.9004
 133887604.9934  104328018.1124                   25477972.3984   25477960.3754
        36.2004         34.9004
 108145806.5674   84269474.8024                   20579468.3124   20579460.3744
        56.3004         50.6004
 122284093.4574   95286345.6644                   23269888.9614   23269879.0694
        45.2004         37.8004
 122257696.5284   95265749.5804                   23264874.6534   23264863.4894
        45.5004         41.4004
 111343617.7174   86761270.6344                   21187995.5964   21187987.0834
        53.3004         44.9004
 130561880.4414  101736511.8744                   24845141.1324   24845123.1744
        42.3004         37.2004
 129085820.9764  100586369.5074                   24564226.4164   24564213.0024
        37.7004         34.7004
 14 10 11 15  1  0.0000000  0 12G01G02G04G06G11G12G17G20G24G28G30G32
 120912004.9624   94217156.5704                   23008807.2064   23008793.7544
        44.5004         41.2004
 132396904.6084  103166442.6084                   25194305.4314   25194293.9644
        40.5004         37.2004
 119331717.5404   92985773.2794                   22708085.9184   22708075.2974
        46.1004         38.8004
 116721708.7394   90952004.6834                   22211408.3294   22211395.3824
        49.1004         44.7004
 131210242.0724  102241735.9854                   24968498.6674   24968484.3614
        36.2004         34.1004
 133784268.0284  104247495.6934                   25458305.1074   25458297.3904
        37.2004         34.2004
 108151597.4994   84273987.1824                   20580570.7424   20580562.6224
        56.1004         51.2004
 122235891.3734   95248785.6664                   23260717.4074   23260706.8174
        45.6004         39.0004
 122196886.1824   95218364.8874                   23253304.1034   23253292.2504
        46.3004         42.0004
 111386128.8244   86794396.1394                   21196084.9084   21196077.4384
        53.4004         45.1004
 130677562.7574  101826653.6054                   24867154.4534   24867136.1384
        40.6004         38.8004
 129096857.7414  100594969.5664                   24566327.5354   24566313.3734
        38.2004         34.0004
 14 10 11 15  1 30.0000000  0 12G01G02G04G06G11G12G17G20G24G28G30G32
 121002154.2074   94287402.6544                   23025960.7984   23025946.8974
        43.4004         42.2004
 132292261.0354  103084902.0984                   25174393.3164   25174381.0384
        39.9004         37.7004
 119423052.4794   93056943.3024                   22725467.2694   22725456.4904
        46.5004         38.7004
 116626427.9384   90877759.9424                   22193276.4424   22193263.8164
        49.3004         45.2004
 131323363.5564  102329882.5364                   24990020.7934   24990015.0014
        39.2004         30.8004
 133680896.5614  104166946.4094                   25438638.1344   25438629.9314
        37.7004         33.4004
 108157685.1354   84278730.7594                   20581729.3854   20581720.6314
        55.6004         51.5004
 122188142.6364   95211578.9384                   23251630.8024   23251620.9614
        45.7004         39.8004
 122136558.8644   95171356.5764                   23241824.6334   23241814.0364
        47.0004         42.5004
 111428986.0654   86827791.3464                   21204240.3594   21204232.6774
        53.2004         45.3004
 130793236.2364  101916788.4684                   24889168.1114   24889149.1054
        40.1004         39.1004
 129108446.1934  100603999.5064                   24568531.9724   24568518.9114
        38.2004         36.8004
 14 10 11 15  2  0.0000000  0 12G01G02G04G06G11G12G17G20G24G28G30G32
 121092617.3824   94357893.3774                   23043176.1924   23043162.4134
        43.5004         41.6004
 132187646.2554  103003383.9914                   25154484.8964   25154470.7284
        36.5004         39.9004
 119514735.5534   93128384.5934                   22742913.1434   22742902.5194
        45.6004         39.5004
 116531463.0824   90803761.3984                   22175205.0394   22175192.5204
        49.2004         44.8004
 131436553.3964  102418082.3574                   25011561.2944   25011552.8724
        38.1004         31.8004
 133577491.4174  104086370.8704                   25418957.1784   25418950.5214
        37.2004         33.3004
 108164069.4884   84283705.5494                   20582944.0694   20582935.6334
        55.8004         51.2004
 122140850.2024   95174727.7604                   23242631.2954   23242622.5494
        46.9004         38.8004
 122076716.6074   95124726.2264                   23230437.4204   23230426.0484
        47.7004         42.6004
 111472190.1734   86861456.8564                   21212461.9144   21212454.1144
        53.2004         45.0004
 130908898.7194  102006914.8044                   24911177.0434   24911159.1984
        41.1004         39.2004
 129120586.6514  100613459.5714                   24570842.3984   24570830.5764
        40.0004         34.9004
 14 10 11 15  2 30.0000000  0 12G01G02G04G06G11G12G17G20G24G28G30G32
 121183391.7484   94428626.6014                   23060449.6474   23060434.6934
        43.1004         42.0004
 132083062.3974  102921890.0234                   25134584.3984   25134573.1054
        35.5004         39.6004
 119606764.4534   93200095.3314                   22760425.8134   22760416.2434
        46.2004         38.2004
 116436816.2914   90730010.7184                   22157195.3124   22157181.9714
        49.3004         45.2004
 131549809.2774  102506333.6514                   25033115.8244   25033104.8964
        39.7004         31.1004
 133474054.5194  104005770.5804                   25399276.3834   25399265.6304
        36.8004         35.9004
 108170749.7774   84288910.9404                   20584215.0454   20584206.8034
        55.8004         51.2004
 122094016.1014   95138233.7224                   23233719.4214   23233710.9364
        47.2004         38.8004
 122017361.7134   95078475.6204                   23219143.5224   23219132.5654
        48.1004         42.8004
 111515741.4414   86895392.8664                   21220749.6454   21220740.7934
        52.9004         45.2004
 131024547.6664  102097030.6294                   24933185.2954   24933165.9754
        41.2004         38.7004
 129133278.9494  100623349.6884                   24573259.2294   24573246.1134
        40.4004         34.5004
 14 10 11 15  3  0.0000000  0 12G01G02G04G06G11G12G17G20G24G28G30G32
 121274474.5824   94499600.1594                   23077782.4194   23077766.6274
        42.6004         43.1004
 131978511.0784  102840421.3244                   25114689.5274   25114679.2794
        37.3004         37.3004
 119699135.8444   93272072.9684                   22778003.3724   22777994.0444
        46.5004         38.1004
 116342489.6744   90656509.5144                   22139245.1624   22139231.5174
        49.0004         46.0004
 131663128.9384  102594634.6174                   25054679.0064   25054668.6714
        38.1004         31.1004
 133370586.3224  103925145.9024                   25379584.5154   25379577.2894
        37.7004         35.4004
 108177724.9944   84294346.1454                   20585542.5484   20585534.3574
        55.8004         51.2004
 122047642.6384   95102098.6054                   23224894.9534   23224885.7034
        47.0004         38.9004
 121958496.3444   95032606.4744                   23207940.8434   23207930.2534
        47.3004         43.2004
 111559639.5444   86929599.1424                   21229103.4384   21229094.7734
        52.6004         45.3004
 131140180.4714  102187133.9114                   24955188.0064   24955169.5044
        42.2004         38.1004
 129146523.0834  100633669.7914                   24575777.8124   24575766.2264
        40.9004         36.1004
 14 10 11 15  3 30.0000000  0 12G01G02G04G06G11G12G17G20G24G28G30G32
 121365863.2524   94570812.0094                   23095173.1914   23095160.7694
        44.3004         41.2004
 131873993.9634  102758979.3624                   25094799.5604   25094789.1894
        38.3004         40.4004
 119791846.9884   93344315.3474                   22795645.2104   22795635.4804
        45.7004         38.2004
 116248485.4844   90583259.5614                   22121356.2894   22121343.7474
        49.8004         45.4004
 131776510.4794  102682983.7644                   25076253.5004   25076244.9594
        38.5004         28.5004
 133267088.0464  103844497.8174                   25359889.8854   25359882.9924
        38.2004         33.0004
 108184994.8474   84300010.9344                   20586926.0474   20586917.6874
        55.9004         51.0004
 122001732.0604   95066324.1844                   23216157.1474   23216149.0894
        46.9004         37.5004
 121900122.1084   94987120.0454                   23196833.0954   23196821.4794
        47.0004         43.4004
 111603884.6224   86964075.7834                   21237522.8064   21237514.1654
        52.9004         45.0004
 131255794.8084  102277222.8724                   24977190.4544   24977171.4384
        41.5004         36.2004
 129160319.0844  100644419.9054                   24578402.9364   24578391.5204
        40.9004         34.7004
 14 10 11 15  4  0.0000000  0 12G01G02G04G06G11G12G17G20G24G28G30G32
 121457555.2944   94642260.3034                   23112621.5724   23112608.5184
        44.2004         41.6004
 131769513.4674  102677566.1264                   25074916.0964   25074906.5864
        40.0004         38.1004
 119884895.5054   93416820.6134                   22813353.7624   22813342.3864
        45.4004         38.8004
 116154806.1404   90510262.7284                   22103530.1704   22103516.9774
        49.7004         46.0004
 131889952.1574  102771379.8054                   25097841.4184   25097832.6704
        38.5004         32.3004
 133163561.3064  103763827.5274                   25340192.6184   25340179.9544
        37.1004         36.7004
 108192559.0954   84305905.1274                   20588365.3824   20588356.9094
        55.4004         51.5004
 121956286.9874   95030912.4264                   23207508.1604   23207502.2844
        46.7004         37.2004
 121842241.2644   94942018.0904                   23185818.6514   23185806.6394
        46.6004         43.9004
 111648476.8434   86998822.9324                   21246008.5684   21246000.3724
        52.8004         45.3004
 131371388.4904  102367295.7784                   24999186.7834   24999167.4354
        38.9004         35.5004
 129174667.0824  100655600.1284                   24581133.6564   24581124.9374
        41.0004         34.2004
 14 10 11 15  4 30.0000000  0 12G01G02G04G06G11G12G17G20G24G28G30G32
 121549547.4844   94713942.4554                   23130127.2904   23130113.6474
        44.5004         41.1004
 131665070.8374  102596182.5144                   25055042.8374   25055032.2834
        40.3004         38.2004
 119978277.9884   93489586.1094                   22831122.4284   22831113.0504
        46.1004         38.8004
 116061453.2514   90437520.2604                   22085765.6034   22085751.3884
        49.8004         45.3004
 132003451.2974  102859820.6554                   25119438.9964   25119430.5914
        37.9004         31.0004
 133060006.2174  103683135.1814                   25320484.1804   25320475.3784
        37.3004         34.7004
 108200416.4864   84312027.7274                   20589860.6914   20589852.2014
        55.9004         51.2004
 121911309.2664   94995864.8464                   23198949.1604   23198941.5344
        46.6004         37.6004
 121784855.0584   94897301.5544                   23174897.6214   23174886.5184
        47.3004         42.7004
 111693415.8664   87033840.3044                   21254560.2984   21254551.3974
        53.1004         45.0004
 131486958.4194  102457350.1774                   25021178.9394   25021160.8724
        39.7004         36.1004
 129189566.3974  100667209.9484                   24583969.2734   24583959.5344
        41.5004         34.1004
 14 10 11 15  5  0.0000000  0 12G01G02G04G06G11G12G17G20G24G28G30G32
 121641837.5254   94785856.6934                   23147689.4194   23147675.8454
        44.5004         41.5004
 131560667.9914  102514830.0594                   25035174.5714   25035163.2784
        38.6004         38.6004
 120071991.7464   93562609.7484                   22848956.9574   22848945.6864
        45.3004         39.1004
 115968429.3454   90365034.1484                   22068063.5774   22068050.5374
        50.2004         45.1004
 132117006.1694  102948304.8434                   25141049.7454   25141038.3764
        38.6004         30.4004
 132956424.5984  103602422.1554                   25300774.8614   25300764.4274
        37.6004         35.8004
 108208566.7654   84318378.5514                   20591411.8474   20591403.3654
        55.9004         51.2004
 121866801.3984   94961183.4144                   23190482.0814   23190472.0604
        46.1004         39.6004
 121727966.0214   94852972.4134                   23164071.9594   23164060.5984
        46.7004         43.1004
 111738702.6344   87069128.6624                   21263178.2334   21263169.6164
        53.0004         44.8004
 131602502.4394  102547384.4314                   25043168.7124   25043147.0614
        38.3004         36.3004
 129205017.3574  100679249.6334                   24586911.2624   24586897.4004
        39.9004         36.4004
 14 10 11 15  5 30.0000000  0 12G01G02G04G06G11G12G17G20G24G28G30G32
 121734422.5634   94858000.7774                   23165307.3344   23165295.1814
        45.1004         41.1004
 131456306.5424  102433509.9354                   25015314.8784   25015304.3494
        39.7004         37.5004
 120166033.9904   93635889.3224                   22866852.5664   22866840.9964
        45.7004         38.4004
 115875736.4194   90292805.9314                   22050424.3064   22050411.1084
        49.8004         45.3004
 132230614.6544  103036830.8674                   25162667.1774   25162656.4724
        38.0004         30.8004
 132852817.8694  103521689.6074                   25281057.1734   25281048.8724
        37.2004         34.3004
 108217009.1084   84324956.9524                   20593018.2134   20593009.9034
        56.0004         51.3004
 121822765.4044   94926869.6524                   23182101.9474   23182090.8914
        44.8004         40.3004
 121671575.3374   94809031.6074                   23153341.9504   23153327.7804
        45.4004         44.2004
 111784336.7584   87104687.6764                   21271862.0234   21271853.7184
        52.9004         44.8004
 131718017.9984  102637396.4114                   25065146.9274   25065128.7364
        39.7004         38.3004
 129221019.5414  100691718.8714                   24589955.6354   24589943.8914
        40.5004         35.7004
 14 10 11 15  6  0.0000000  0 12G01G02G04G06G11G12G17G20G24G28G30G32
 121827300.1614   94930372.8354                   23182981.6624   23182968.7004
        45.3004         41.0004
 131351988.3134  102352223.4614                   24995464.1674   24995450.5094
        38.9004         38.8004
 120260402.3424   93709423.0324                   22884809.5554   22884798.1884
        44.9004         39.0004
 115783376.7594   90220837.4184                   22032850.0274   22032835.4094
        50.1004         45.7004
 132344274.9364  103125397.2584                   25184297.4904   25184286.1814
        38.0004         30.2004
 132749187.2064  103440938.4004                   25261336.3204   25261326.6464
        36.2004         34.2004
 108225743.3694   84331762.8264                   20594680.1334   20594672.2894
        56.2004         50.7004
 121779203.9614   94892925.6674                   23173813.0134   23173803.2134
        45.9004         39.7004
 121615685.6564   94765481.1884                   23142705.8544   23142693.7164
        46.1004         42.9004
 111830318.6034   87140517.6364                   21280612.1034   21280603.6794
        53.0004         44.3004
 131833502.7984  102727384.4924                   25087126.6474   25087106.6064
        41.1004         39.1004
 129237573.1074  100704617.7124                   24593106.1944   24593094.6624
        40.7004         35.4004
 14 10 11 15  6 30.0000000  0 12G01G02G04G06G11G12G17G20G24G28G30G32
 121920467.3934   95002970.5884                   23200712.0494   23200697.3814
        44.7004         42.0004
 131247714.6434  102270971.7644                   24975620.6204   24975607.6244
        39.6004         38.8004
 120355093.4924   93783208.2384                   22902828.4624   22902817.7404
        44.7004         39.3004
 115691352.4504   90149130.2204                   22015337.9554   22015325.0514
        50.8004         45.7004
 132457984.6974  103214002.1964                   25205937.8334   25205926.9594
        39.5004         31.5004
 132645533.4864  103360169.0614                   25241616.2844   25241604.6544
        38.5004         35.1004
 108234768.6324   84338795.4544                   20596397.8404   20596389.4134
        55.9004         50.9004
 121736118.9314   94859352.9114                   23165614.2394   23165603.1124
        45.0004         40.5004
 121560298.8044   94722322.5764                   23132164.8634   23132153.1354
        45.3004         42.6004
 111876647.8584   87176618.3084                   21289428.3824   21289420.2044
        53.0004         44.5004
 131948954.2804  102817346.5884                   25109094.3194   25109074.7694
        40.0004         39.9004
 129254677.6574  100717945.8984                   24596361.0564   24596347.9494
        39.4004         36.7004
 14 10 11 15  7  0.0000000  0 12G01G02G04G06G11G12G17G20G24G28G30G32
 122013921.7324   95075792.0404                   23218495.4674   23218480.7604
        44.3004         41.8004
 131143487.5084  102189756.2544                   24955785.4964   24955774.4194
        39.7004         37.6004
 120450104.6684   93857242.8404                   22920909.5504   22920899.5514
        45.7004         38.5004
 115599665.6434   90077685.9934                   21997889.6684   21997876.5424
        50.1004         45.9004
 132571741.9074  103302644.0974                   25227582.9574   25227573.6614
        39.7004         30.0004
 132541858.4044  103279383.2364                   25221887.3944   25221877.4004
        39.7004         34.2004
 108244084.6374   84346054.6434                   20598170.9294   20598162.1774
        56.0004         50.9004
 121693512.5514   94826153.0924                   23157505.8934   23157495.3244
        44.6004         39.7004
 121505416.3454   94679556.9864                   23121722.1284   23121709.2194
        45.9004         42.6004
 111923324.7204   87212989.8394                   21298310.0784   21298302.8984
        53.7004         44.2004
 132064370.0854  102907280.8974                   25131056.8494   25131037.0064
        38.5004         40.1004
 129272332.9204  100731703.2644                   24599720.3494   24599706.4294
        39.3004         36.0004
 14 10 11 15  7 30.0000000  0 12G01G02G04G06G11G12G17G20G24G28G30G32
 122107660.4824   95148835.1174                   23236333.1034   23236320.6044
        45.1004         41.2004
 131039308.7274  102108578.3924                   24935961.8134   24935949.7004
        39.5004         37.5004
 120545433.1634   93931524.6894                   22939050.3794   22939039.2264
        45.2004         38.0004
 115508318.4444   90006506.3924                   21980507.4974   21980492.7774
        50.0004         46.9004
 132685545.0704  103391321.8714                   25249241.7404   25249229.9044
        39.5004         29.3004
 132438163.1864  103198581.6864                   25202151.1954   25202146.2554
        40.4004         35.2004
 108253690.6044   84353539.7824                   20599998.8274   20599991.0624
        56.2004         50.9004
 121651386.9744   94793327.9244                   23149489.7114   23149479.3024
        44.3004         39.6004
 121451040.2984   94637186.0014                   23111374.3554   23111361.4164
        45.5004         43.3004
 111970349.4364   87249632.4474                   21307259.0574   21307250.5584
        52.9004         44.7004
 132179747.8334  102997185.5354                   25153011.5004   25152992.9494
        37.1004         39.0004
 129290538.8844  100745889.7284                   24603185.9274   24603171.7814
        39.2004         34.3004
 14 10 11 15  8  0.0000000  0 12G01G02G04G06G11G12G17G20G24G28G30G32
 122201681.2754   95222097.9884                   23254223.6304   23254212.9324
        45.3004         40.8004
 130935180.3644  102027439.7144                   24916147.0834   24916133.9674
        39.9004         38.6004
 120641076.2824   94006051.7304                   22957249.7064   22957238.2814
        44.0004         38.3004
 115417313.3024   89935593.3484                   21963189.6744   21963175.4654
        49.8004         47.5004
 132799392.0404  103480033.7834                   25270905.7734   25270892.6114
        37.6004         31.9004
 132334448.9594  103117765.3204                   25182418.1704   25182411.1784
        40.1004         33.9004
 108263586.2824   84361250.6754                   20601881.8654   20601873.6694
        55.8004         51.1004
 121609744.8594   94760879.4704                   23141565.8014   23141556.2494
        44.5004         39.9004
 121397172.7144   94595211.2364                   23101123.7534   23101112.6104
        46.0004         43.0004
 112017722.0554   87286546.1204                   21316273.9754   21316265.6174
        53.0004         44.8004
 132295085.3504  103087058.8224                   25174961.3664   25174941.5844
        37.9004         38.5004
 129309295.6054  100760505.3194                   24606753.5384   24606741.7144
        39.3004         35.1004
 14 10 11 15  8 30.0000000  0 12G01G02G04G06G11G12G17G20G24G28G30G32
 122295980.6564   95295577.9314                   23272168.8844   23272156.7784
        44.5004         40.6004
 130831103.2784  101946340.9614                   24896340.5184   24896330.0654
        42.5004         37.8004
 120737030.6244   94080821.2644                   22975509.2464   22975498.0684
        44.0004         39.2004
 115326651.4894   89864947.8304                   21945937.1954   21945923.3624
        50.3004         47.4004
 132913280.2364  103568777.7844                   25292577.8024   25292564.6604
        38.7004         31.4004
 132230716.4004  103036934.6924                   25162678.3854   25162668.7984
        38.8004         35.5004
 108273770.2804   84369186.2364                   20603819.6384   20603811.2454
        55.7004         51.2004
 121568587.3864   94728808.6574                   23133733.8664   23133723.6504
        44.8004         40.1004
 121343813.9224   94553632.9484                   23090969.8244   23090958.9234
        46.5004         42.6004
 112065441.6714   87323730.1904                   21325354.7514   21325345.2404
        52.1004         44.9004
 132410379.3854  103176898.2424                   25196900.9604   25196879.2494
        37.6004         38.1004
 129328601.7744  100775549.1114                   24610425.7594   24610412.1464
        37.3004         35.2004
 14 10 11 15  9  0.0000000  0 12G01G02G04G06G11G12G17G20G24G28G30G32
 122390556.7934   95369273.5294                   23290166.0504   23290154.4594
        44.8004         41.2004
 130727080.3814  101865284.4054                   24876546.4664   24876535.5504
        43.9004         38.7004
 120833294.3004   94155831.8264                   22993828.9304   22993816.3204
        44.5004         39.7004
 115236335.9464   89794572.1144                   21928750.2344   21928735.8574
        50.1004         47.1004
 133027208.3684  103657552.9354                   25314255.0104   25314246.2964
        39.9004         32.6004
 132126968.0474  102956091.7554                   25142934.2374   25142926.6914
        40.7004         35.7004
 108284242.9914   84377346.7594                   20605812.5974   20605803.8694
        55.7004         50.9004
 121527917.5794   94697117.8364                   23125994.0554   23125982.8484
        43.9004         40.7004
 121290967.4824   94512453.8764                   23080913.0294   23080901.0314
        45.8004         42.5004
 112113509.6964   87361185.7454                   21334501.6484   21334493.4914
        52.7004         43.8004
 132525628.3054  103266702.5074                   25218828.4654   25218814.7564
        40.2004         32.7004
 129348458.1294  100791021.5984                   24614204.0254   24614190.1324
        37.2004         34.5004
 14 10 11 15  9 30.0000000  0 12G01G02G04G06G11G12G17G20G24G28G30G32
 122485406.6184   95443182.3714                   23308217.0464   23308203.4374
        44.2004         42.5004
 130623112.5164  101784270.7484                   24856761.9704   24856749.3944
        43.2004         40.6004
 120929863.9014   94231080.7604                   23012204.9584   23012193.2084
        43.9004         38.7004
 115146368.3804   89724467.5684                   21911629.6944   21911616.2854
        50.1004         46.9004
 133141174.3024  103746357.5624                   25335940.2464   25335931.8114
        39.0004         31.5004
 132023204.0484  102875236.6244                   25123188.3664   25123182.1984
        40.3004         35.9004
 108295003.2794   84385731.3704                   20607860.3004   20607851.5804
        55.4004         51.1004
 121487737.1384   94665808.3234                   23118349.4094   23118336.5264
        43.5004         41.5004
 121238634.5594   94471674.9544                   23070954.5534   23070941.3624
        45.0004         42.9004
 112161925.3744   87398912.1984                   21343714.9774   21343707.0274
        52.5004         43.9004
 132640829.3494  103356469.6064                   25240752.8964   25240736.0524
        41.3004         33.8004
 129368863.8814  100806922.1994                   24618087.3074   24618074.4754
        38.0004         34.1004
 14 10 11 15 10  0.0000000  0 12G01G02G04G06G11G12G17G20G24G28G30G32
 122580527.3944   95517302.3214                   23326317.0834   23326302.9884
        42.7004         41.8004
 130519201.7644  101703301.6034                   24836987.5524   24836976.1914
        43.1004         39.7004
 121026736.6154   94306565.8814                   23030638.2364   23030626.1024
        43.3004         38.3004
 115056750.7834   89654635.7084                   21894576.8314   21894563.1104
        50.7004         46.8004
 133255175.8284  103835189.9284                   25357635.2654   25357626.4124
        39.4004         31.6004
 131919426.1874  102794370.7484                   25103439.8594   25103433.3344
        37.9004         35.2004
 108306050.3494   84394339.4494                   20609962.7704   20609954.3204
        56.0004         51.0004
 121448047.8594   94634881.5444                   23110795.3114   23110785.8354
        45.7004         39.5004
 121186816.5514   94431297.2674                   23061094.8154   23061081.8304
        46.1004         43.3004
 112210688.7124   87436909.5514                   21352993.9984   21352986.0504
        52.6004         43.8004
 132755980.1184  103446197.4584                   25262665.3074   25262648.4514
        41.3004         32.8004
 129389818.5804  100823250.5564                   24622075.0964   24622063.0624
        39.2004         34.0004
 14 10 11 15 10 30.0000000  0 12G01G02G04G06G11G12G17G20G24G28G30G32
 122675916.5544   95591631.4594                   23344467.6734   23344454.4594
        43.0004         40.7004
 130415350.1684  101622378.5824                   24817223.8784   24817212.4224
        40.7004         39.6004
 121123909.7034   94382285.1084                   23049130.1454   23049120.1224
        45.0004         38.0004
 114967485.3554   89585078.2844                   21877589.9334   21877576.1834
        50.1004         46.2004
 133369211.1624  103924048.7264                   25379336.4684   25379324.4344
        36.7004         30.6004
 131815635.6644  102713494.9054                   25083688.4594   25083682.6624
        39.4004         32.3004
 108317384.1994   84403171.0004                   20612119.7244   20612111.1294
        55.7004         50.5004
 121408852.1184   94604339.3264                   23103337.0444   23103326.5574
        45.5004         39.7004
 121135515.7854   94391322.6094                   23051332.3594   23051321.0384
        47.3004         41.8004
 112259799.9074   87475177.9814                   21362339.8974   21362331.5264
        52.6004         43.7004
 132871078.2684  103535884.3204                   25284569.0434   25284551.9244
        40.9004         35.9004
 129411322.0224  100840006.5254                   24626166.7924   24626152.7564
        37.3004         35.6004
 14 10 11 15 11  0.0000000  0 12G01G02G04G06G11G12G17G20G24G28G30G32
 122771571.7334   95666167.8834                   23362671.6104   23362658.1524
        43.1004         40.8004
 130311559.4764  101541503.0654                   24797474.1264   24797462.0624
        40.3004         37.5004
 121221380.6394   94458236.3894                   23067679.3904   23067669.0304
        45.9004         38.5004
 114878574.3514   89515797.0274                   21860670.6154   21860657.3464
        50.6004         46.6004
 133483278.7844  104012932.5234                   25401041.2424   25401031.8564
        37.6004         31.9004
 131711834.7624  102632610.9954                   25063937.3644   25063927.1644
        37.6004         36.0004
 108329004.2204   84412225.5514                   20614330.4804   20614321.9974
        55.3004         51.2004
 121370152.2094   94574183.4434                   23095973.2064   23095962.8314
        45.9004         40.0004
 121084733.9594   94351752.3444                   23041668.1494   23041658.0674
        47.6004         42.4004
 112309258.8934   87513717.4094                   21371751.5764   21371742.7794
        52.1004         44.2004
 132986121.6684  103625528.4464                   25306461.3254   25306440.8564
        38.2004         37.5004
 129433374.0004  100857189.8814                   24630363.8854   24630349.2794
        37.9004         36.7004
 14 10 11 15 11 30.0000000  0 12G01G02G04G06G11G12G17G20G24G28G30G32
 122867490.0894   95740909.3814                   23380925.7184   23380910.2954
        42.0004         42.4004
 130207831.3804  101460676.2164                   24777735.6574   24777723.8414
        40.9004         36.1004
 121319146.5294   94534417.4964                   23086283.9544   23086272.0334
        44.9004         38.9004
 114790019.7554   89446793.4804                   21843818.6764   21843806.0614
        50.7004         45.8004
 133597376.6094  104101840.0374                   25422756.1584   25422743.7194
        37.6004         31.5004
 131608024.2174  102551719.6284                   25044183.7174   25044175.9824
        39.7004         35.3004
 108340909.8764   84421502.6864                   20616595.7384   20616588.0284
        55.7004         50.7004
 121331950.1264   94544415.4914                   23088704.0094   23088694.1614
        46.7004         39.6004
 121034472.2644   94312587.3704                   23032104.0304   23032092.3804
        46.8004         42.6004
 112359065.5834   87552527.7724                   21381229.6624   21381222.2824
        52.8004         43.8004
 133101107.7914  103715127.9214                   25328342.3744   25328324.2904
        38.8004         38.3004
 129455973.9504  100874800.2554                   24634665.0814   24634651.5964
        39.2004         36.0004
 14 10 11 15 12  0.0000000  0 12G01G02G04G06G11G12G17G20G24G28G30G32
 122963668.7934   95815853.7034                   23399227.3204   23399211.9694
        42.5004         41.9004
 130104167.3604  101379899.3254                   24758008.1994   24757998.3164
        42.4004         34.9004
 121417204.3114   94610826.0164                   23104942.5244   23104932.6204
        45.0004         38.2004
 114701823.3464   89378069.0494                   21827035.5454   21827022.6434
        50.9004         45.8004
 133711502.4104  104190769.3014                   25444469.7164   25444461.6074
        37.5004         28.3004
 131504204.9654  102470821.4514                   25024428.3084   25024420.1814
        40.6004         34.1004
 108353100.2084   84431001.6454                   20618915.4024   20618907.3394
        55.8004         50.7004
 121294247.5984   94515036.8064                   23081529.0214   23081519.6434
        47.4004         38.8004
 120984732.7604   94273829.3074                   23022638.9404   23022627.4954
        47.1004         42.6004
 112409220.0304   87591609.1154                   21390773.1374   21390765.2574
        52.5004         43.6004
 133216034.0774  103804680.6984                   25350212.6934   25350192.8074
        37.8004         39.6004
 129479121.2704  100892837.1884                   24639070.3114   24639056.6554
        39.8004         35.9004
 14 10 11 15 12 30.0000000  0 12G01G02G04G06G11G12G17G20G24G28G30G32
 123060105.2014   95890998.8494                   23417577.9424   23417564.1464
        42.9004         41.1004
 130000569.3524  101299173.8204                   24738294.3044   24738282.8224
        43.2004         36.9004
 121515550.9844   94687459.7254                   23123656.6794   23123645.7854
        44.9004         37.4004
 114613987.2234   89309625.3644                   21810321.5064   21810308.6174
        50.7004         46.7004
 133825654.5604  104279719.0924                   25466196.8424   25466181.4874
        35.6004         31.9004
 131400378.4464  102389917.6464                   25004667.8974   25004661.1534
        37.9004         36.2004
 108365574.6794   84440722.0084                   20621289.2894   20621281.0594
        55.4004         50.6004
 121257046.6674   94486048.9904                   23074449.9074   23074439.7574
        46.6004         40.1004
 120935516.7614   94235479.1684                   23013274.1044   23013261.2914
        46.4004         43.2004
 112459722.0264   87630961.2714                   21400383.9954   21400375.3184
        51.8004         43.9004
 133330898.1104  103894184.9594                   25372070.2344   25372051.5644
        38.2004         39.0004
 129502815.4354  100911300.1364                   24643577.6424   24643566.5824
        39.9004         35.5004
 14 10 11 15 13  0.0000000  0 12G01G02G04G06G11G12G17G20G24G28G30G32
 123156796.5244   95966342.6504                   23435976.3804   23435963.9524
        42.7004         40.0004
 129897038.4364  101218500.6034                   24718592.3354   24718582.0634
        44.7004         37.7004
 121614183.9794   94764316.5114                   23142426.5024   23142415.7844
        44.9004         38.8004
 114526513.1804   89241463.8344                   21793675.2964   21793661.9574
        50.6004         46.4004
 133939831.0164  104368687.8784                   25487924.1794   25487910.0664
        37.3004         29.6004
 131296545.5054  102309008.8554                   24984911.9844   24984902.1654
        40.0004         37.3004
 108378332.2374   84450662.9694                   20623717.0494   20623708.8174
        55.5004         50.7004
 121220349.1934   94457453.4704                   23067467.3274   23067456.6834
        47.0004         39.6004
 120886825.9744   94197538.2524                   23004007.7734   23003995.7014
        46.2004         42.8004
 112510571.3874   87670584.0934                   21410060.3624   21410051.2864
        51.8004         44.5004
 133445697.4134  103983638.7234                   25393916.2454   25393894.4784
        37.0004         40.0004
 129527055.7194  100930188.7264                   24648191.0744   24648179.8324
        40.5004         33.8004
 14 10 11 15 13 30.0000000  0 12G01G02G04G06G11G12G17G20G24G28G30G32
 123253740.4734   96041883.3054                   23454425.6824   23454412.2934
        43.2004         40.0004
 129793576.9864  101137881.4324                   24698903.6574   24698893.6304
        45.0004         38.6004
 121713100.7574   94841394.3954                   23161251.4974   23161239.3094
        45.0004         38.8004
 114439403.6404   89173586.3154                   21777098.7764   21777085.7444
        50.9004         46.2004
 134054030.2564  104457674.2934                   25509651.0444   25509642.2094
        37.5004         30.7004
 131192708.9944  102228097.2654                   24965154.6484   24965143.1074
        40.5004         36.5004
 108391373.2144   84460824.7774                   20626198.8614   20626190.5044
        55.7004         50.7004
 121184157.2574   94429251.9064                   23060579.8974   23060569.2484
        46.9004         39.9004
 120838662.3594   94160008.1224                   22994843.3554   22994830.4184
        46.6004         43.1004
 112561768.1934   87710477.6504                   21419803.0524   21419794.5804
        52.4004         44.1004
 133560429.9194  104073040.4434                   25415749.1884   25415730.3964
        41.1004         38.5004
 129551842.0654  100949502.7534                   24652908.7374   24652896.2004
        40.0004         34.8004
 14 10 11 15 14  0.0000000  0 12G01G02G04G06G11G12G17G20G24G28G30G32
 123350934.4664   96117618.7814                   23472922.2154   23472907.0324
        43.2004         42.6004
 129690186.8824  101057317.8304                   24679228.6864   24679218.4864
        44.5004         39.6004
 121812298.5354   94918691.2144                   23180127.7434   23180116.4764
        45.3004         38.9004
 114352660.6564   89105994.4324                   21760592.6694   21760578.8244
        50.7004         46.6004
 134168250.3834  104546677.1654                   25531391.0724   25531377.3524
        36.8004         32.6004
 131088869.0574  102147182.9524                   24945391.7164   24945381.8784
        39.0004         37.7004
 108404696.9234   84471206.8854                   20628734.3114   20628725.4994
        55.3004         50.9004
 121148473.0324   94401445.9534                   23053789.0604   23053777.2034
        45.7004         40.8004
 120791027.4694   94122889.9854                   22985779.6854   22985767.6674
        46.9004         43.2004
 112613312.3614   87750641.9004                   21429611.9404   21429602.8914
        52.6004         44.6004
 133675093.5054  104162388.4154                   25437570.4374   25437549.5904
        40.5004         38.9004
 129577173.9944  100969241.9084                   24657730.2594   24657717.3654
        40.3004         33.3004
 14 10 11 15 14 30.0000000  0 12G01G02G04G06G11G12G17G20G24G28G30G32
 123448375.6484   96193546.8544                   23491464.7204   23491451.5214
        44.9004         41.2004
 129586869.5564  100976810.9074                   24659568.3834   24659557.3504
        42.3004         39.4004
 121911774.3024   94996204.7324                   23199056.2324   23199047.6244
        46.1004         36.7004
 114266286.0274   89038689.5934                   21744155.9004   21744143.0314
        51.4004         45.8004
 134282489.4734  104635694.6784                   25553123.9644   25553115.8314
        37.5004         33.1004
 130985028.1324  102066267.8664                   24925633.9524   24925619.9494
        38.9004         37.6004
 108418302.4324   84481808.5604                   20631323.2844   20631314.7554
        55.8004         50.4004
 121113298.0864   94374036.8454                   23047095.6564   23047086.1964
        47.1004         38.4004
 120743922.5974   94086184.8824                   22976816.5714   22976801.7934
        46.1004         43.9004
 112665203.8404   87791076.7644                   21439486.4594   21439477.6114
        52.7004         44.0004
 133789685.5794  104251680.6524                   25459375.1724   25459357.8674
        42.9004         35.7004
 129603050.6624  100989405.5174                   24662652.9494   24662641.2864
        39.8004         34.1004
 14 10 11 15 15  0.0000000  0 12G01G02G04G06G11G12G17G20G24G28G30G32
 123546061.2934   96269665.4254                   23510052.7064   23510038.1524
        43.0004         40.8004
 129483626.8844  100896362.1614                   24639921.3584   24639910.6714
        39.5004         39.7004
 122011525.0164   95073932.4864                   23218038.9624   23218028.5824
        44.6004         37.0004
 114180281.6224   88971673.2434                   21727789.4374   21727776.2074
        50.6004         46.1004
 134396745.7684  104724725.6194                   25574868.5174   25574858.4024
        38.1004         31.2004
 130881186.9264  101985352.6344                   24905873.4094   24905858.2174
        37.3004         39.2004
 108432189.3134   84492629.4764                   20633965.9564   20633957.4604
        55.5004         50.7004
 121078634.3734   94347026.1364                   23040498.2424   23040487.9364
        45.5004         39.4004
 120697349.7284   94049894.3244                   22967953.8794   22967940.7274
        46.5004         43.6004
 112717442.5624   87831782.2394                   21449427.2304   21449418.8724
        52.4004         44.0004
 133904203.7394  104340915.2794                   25481169.5894   25481148.6584
        41.7004         37.1004
 129629471.5484  101009993.1924                   24667682.4314   24667669.0744
        39.7004         35.2004
 14 10 11 15 15 30.0000000  0 12G01G02G04G06G11G12G17G20G24G28G30G32
 123643989.1194   96345972.7374                   23528686.5294   23528674.0934
        43.9004         39.7004
 129380460.7514  100815973.0734                   24620290.3344   24620279.6234
        41.0004         37.7004
 122111548.5854   95151872.8054                   23237074.0484   23237061.2134
        43.9004         39.1004
 114094649.7364   88904947.1614                   21711494.2874   21711480.8504
        51.0004         46.1004
 134511017.9754  104813769.0464                   25596615.0234   25596603.7224
        38.5004         30.8004
 130777347.2444  101904438.5184                   24886111.0724   24886100.5194
        38.1004         37.1004
 108446356.7524   84503669.0104                   20636661.9224   20636653.4094
        55.4004         50.7004
 121044484.1344   94320415.5054                   23034000.6044   23033991.0134
        46.5004         39.1004
 120651310.2144   94014019.3584                   22959193.0824   22959178.9054
        46.2004         44.6004
 112770028.4744   87872758.2204                   21459433.5584   21459424.7804
        52.0004         44.0004
 134018646.0204  104430090.8014                   25502947.2204   25502925.9514
        41.7004         36.5004
 129656436.1444  101031004.5144                   24672811.0064   24672797.5374
        38.1004         36.5004
 14 10 11 15 16  0.0000000  0 12G01G02G04G06G11G12G17G20G24G28G30G32
 123742156.0864   96422466.3714                   23547368.5734   23547355.8064
        45.5004         39.6004
 129277372.4444  100735644.6104                   24600673.0574   24600663.9184
        43.8004         35.2004
 122211841.6844   95230023.1444                   23256158.2474   23256147.7554
        44.8004         38.7004
 114009391.9474   88838512.5724                   21695269.8454   21695257.1684
        51.6004         45.0004
 134625303.9954  104902823.2244                   25618360.5274   25618351.4464
        38.2004         30.8004
 130673510.0964  101823526.4614                   24866354.1624   24866341.4564
        39.0004         37.5004
 108460804.5174   84514926.9824                   20639411.4444   20639402.4974
        55.8004         50.3004
 121010848.6744   94294206.0294                   23027599.5944   23027590.8024
        47.6004         38.2004
 120605805.3364   93978560.9694                   22950533.4434   22950519.9794
        47.1004         43.8004
 112822961.2114   87914004.4594                   21469506.1894   21469497.8224
        52.4004         43.5004
 134133009.8154  104519205.1584                   25524710.6044   25524690.7134
        41.6004         32.7004
 129683943.5704  101052438.8424                   24678049.2284   24678033.4904
        39.1004         35.6004
 14 10 11 15 16 30.0000000  0 12G01G02G04G06G11G12G17G20G24G28G30G32
 123840559.7174   96499144.4284                   23566095.5114   23566082.0364
        45.6004         41.6004
 129174364.2134  100655378.4684                   24581069.6724   24581060.6344
        44.9004         34.8004
 122312401.5364   95308381.3774                   23275294.1924   23275281.9334
        44.0004         39.2004
 113924510.3974   88772371.1684                   21679116.5934   21679105.0094
        51.6004         45.3004
 134739602.1154  104991886.8504                   25640114.2164   25640102.7254
        37.1004         28.2004
 130569677.4274  101742617.7954                   24846593.3894   24846583.8154
        39.5004         36.7004
 108475531.8824   84526402.8244                   20642213.9954   20642204.9454
        55.3004         50.8004
 120977730.2004   94268399.4254                   23021299.3834   23021288.8444
        47.0004         39.7004
 120560837.0754   93943520.7624                   22941976.7184   22941963.3454
        47.0004         44.4004
 112876240.7154   87955520.9004                   21479645.3174   21479637.3484
        52.4004         44.0004
 134247293.1974  104608256.9484                   25546456.6304   25546438.6434
        42.0004         31.0004
 129711993.4004  101074295.8184                   24683387.8254   24683373.9884
        40.2004         35.1004
 14 10 11 15 17  0.0000000  0 12G01G02G04G06G11G12G17G20G24G28G30G32
 123939197.4674   96576004.8554                   23584866.0614   23584850.8234
        43.7004         41.5004
 129071437.6244  100575175.9414                   24561485.5744   24561472.6514
        44.3004         37.9004
 122413225.4244   95386945.3364                   23294479.5354   23294468.8444
        42.5004         36.8004
 113840007.0744   88706524.4684                   21663036.2064   21663024.1744
        51.0004         45.5004
 134853911.1124  105080958.9904                   25661864.9274   25661855.8474
        33.5004         33.0004
 130465850.6174  101661713.7664                   24826838.1564   24826826.4854
        38.3004         38.8004
 108490538.4704   84538096.2574                   20645069.7034   20645061.4714
        55.6004         50.7004
 120945130.4454   94242997.0574                   23015094.9564   23015085.6244
        46.9004         40.1004
 120516406.1674   93908899.2604                   22933522.0764   22933507.2474
        46.3004         44.5004
 112929866.8974   87997307.4874                   21489849.8364   21489841.3674
        51.8004         43.8004
 134361493.6854  104697244.1664                   25568188.2154   25568168.8164
        39.1004         34.2004
 129740584.8954  101096574.8474                   24688827.2414   24688814.7484
        40.0004         35.0004
 14 10 11 15 17 30.0000000  0 12G01G02G04G06G11G12G17G20G24G28G30G32
 124038066.6184   96653045.6174                   23603678.9614   23603665.5944
        44.4004         39.1004
 128968594.3234  100495038.3954                   24541914.7454   24541903.2494
        45.3004         39.0004
 122514310.5844   95465712.9164                   23313715.8634   23313706.4694
        43.9004         36.2004
 113755883.7704   88640973.9154                   21647028.5684   21647014.9254
        50.6004         46.0004
 134968229.4334  105170038.3164                   25683622.4174   25683608.4834
        33.0004         31.5004
 130362030.3224  101580814.7824                   24807079.5284   24807068.0214
        38.6004         35.6004
 108505823.6274   84550006.7594                   20647978.4294   20647969.5394
        55.4004         50.8004
 120913051.2044   94218000.2974                   23008990.5174   23008980.0004
        46.7004         40.8004
 120472515.0684   93874698.3614                   22925168.8044   22925155.1124
        46.4004         44.2004
 112983839.6374   88039364.1294                   21500120.7634   21500112.3634
        52.1004         43.8004
 134475609.1414  104786165.1494                   25589901.6804   25589886.5024
        38.1004         34.5004
 129769717.2404  101119275.3064                   24694369.5524   24694356.8114
        39.7004         36.3004
 14 10 11 15 18  0.0000000  0 11G01G02G04G06G12G17G20G24G28G30G32
 124137164.7794   96730264.8824                   23622536.6714   23622524.6674
        45.3004         38.2004
 128865836.3354  100414967.3664                   24522361.0914   24522349.0294
        44.5004         40.9004
 122615654.5744   95544682.1924                   23333003.2704   23332991.7264
        44.5004         38.3004
 113672142.6764   88575721.1804                   21631093.6554   21631080.5604
        51.6004         45.9004
 130258218.5904  101499922.4734                   24787325.8354   24787313.0174
        38.8004         37.2004
 108521386.6874   84562133.7914                   20650940.1504   20650931.1784
        55.4004         50.6004
 120881494.4664   94193410.6834                   23002986.3114   23002974.7284
        46.7004         40.7004
 120429164.9944   93840919.0484                   22916919.4934   22916906.1704
        46.6004         43.8004
 113038158.9074   88081690.7884                   21510457.4504   21510448.7294
        51.9004         43.8004
 134589637.5634  104875018.4034                   25611603.2024   25611584.1654
        38.3004         35.7004
 129799390.0494  101142396.8914                   24700017.5064   24700002.5104
        39.0004         36.0004
 14 10 11 15 18 30.0000000  0 11G01G02G04G06G12G17G20G24G28G30G32
 124236489.3554   96807660.5484                   23641437.3704   23641424.6244
        44.0004         39.1004
 128763165.4144  100334964.2244                   24502823.0484   24502810.8984
        41.7004         41.0004
 122717254.4564   95623850.8164                   23352336.1404   23352320.5914
        41.4004         39.8004
 113588785.6774   88510767.7484                   21615231.3684   21615218.5414
        51.6004         46.4004
 130154418.0364  101419038.8914                   24767574.5414   24767562.7494
        39.4004         37.9004
 108537227.3124   84574477.1134                   20653954.5544   20653945.8244
        55.4004         50.7004
 120850461.9434   94169229.5904                   22997080.4984   22997069.0104
        46.1004         41.0004
 120386357.1104   93807562.2264                   22908773.4454   22908759.6954
        46.8004         44.2004
 113092824.3484   88124287.1704                   21520860.0554   21520851.0034
        51.0004         43.7004
 134703576.8664  104963802.2684                   25633286.3014   25633264.6474
        36.7004         36.3004
 129829602.4984  101165938.9784                   24705764.9424   24705751.8764
        38.7004         36.2004
 14 10 11 15 19  0.0000000  0 11G01G02G04G06G12G17G20G24G28G30G32
 124336037.3804   96885230.3034                   23660381.9084   23660368.4044
        43.8004         40.3004
 128660582.8834  100255030.0024                   24483301.8514   24483288.0294
        39.2004         41.6004
 122819107.3274   95703216.5354                   23371718.5484   23371703.4984
        40.8004         39.3004
 113505814.3404   88446114.8204                   21599441.9594   21599428.8414
        51.6004         46.5004
 130050628.5254  101338163.9154                   24747822.6354   24747814.4764
        41.8004         35.2004
 108553344.6134   84587036.0364                   20657021.4324   20657012.5394
        55.3004         50.7004
 120819954.7804   94145457.8864                   22991275.6544   22991264.1464
        46.7004         41.0004
 120344092.8564   93774629.0054                   22900730.2304   22900717.9354
        47.5004         43.6004
 113147835.7604   88167153.1614                   21531328.6264   21531319.3284
        51.8004         43.9004
 134817424.4204  105052514.7034                   25654948.7934   25654932.1234
        38.2004         35.6004
 129860353.5214  101189900.7784                   24711618.0024   24711601.4824
        38.6004         35.6004
 14 10 11 15 19 30.0000000  0 11G01G02G04G06G12G17G20G24G28G30G32
 124435806.6324   96962972.4074                   23679366.9334   23679354.2924
        44.3004         39.8004
 128558090.6364  100175166.0764                   24463796.8274   24463784.8264
        42.7004         39.6004
 122921210.4584   95782777.3474                   23391146.4524   23391136.5704
        44.1004         35.6004
 113423230.8944   88381764.1394                   21583726.8414   21583713.1904
        51.3004         46.7004
 129946852.7294  101257299.5994                   24728074.5524   24728064.0614
        39.9004         36.8004
 108569738.1824   84599810.2414                   20660140.9094   20660131.8754
        55.3004         50.6004
 120789975.3574   94122097.4054                   22985569.9064   22985559.0454
        46.6004         41.0004
 120302374.0324   93742120.7804                   22892791.0984   22892779.1844
        47.4004         43.1004
 113203193.1784   88210288.7704                   21541862.8134   21541853.7594
        52.0004         44.0004
 134931178.1934  105141154.0864                   25676600.3954   25676576.7244
        36.1004         36.5004
 129891642.5824  101214281.7854                   24717570.4374   24717560.2174
        40.9004         33.7004
 14 10 11 15 20  0.0000000  0 11G01G02G04G06G12G17G20G24G28G30G32
 124535794.2884   97040884.7574                   23698393.5624   23698380.1604
        43.5004         39.2004
 128455690.2584  100095373.7074                   24444311.7014   24444300.5324
        45.7004         37.6004
 123023561.1204   95862531.0444                   23410624.6814   23410613.6234
        44.7004         36.5004
 113341037.0424   88317717.0614                   21568085.8354   21568071.9524
        51.2004         47.2004
 129843091.4544  101176446.5914                   24708327.3324   24708320.9584
        43.1004         35.2004
 108586407.5344   84612799.3264                   20663313.2454   20663304.2594
        55.0004         50.9004
 120760525.2724   94099149.4164                   22979965.5724   22979956.0654
        47.5004         40.7004
 120261201.3844   93710038.1584                   22884956.2124   22884944.1684
        47.3004         43.3004
 113258896.0874   88253693.5664                   21552462.9604   21552453.7044
        51.7004         44.4004
 135044835.8594  105229718.6324                   25698222.4244   25698202.5164
        31.2004         35.4004
 129923468.8054  101239081.3434                   24723625.6024   24723616.8634
        40.7004         34.7004
 14 10 11 15 20 30.0000000  0 11G01G02G04G06G12G17G20G24G28G30G32
 124635997.8794   97118965.3834                   23717462.0784   23717448.3274
        41.7004         38.0004
 128353383.7604  100015654.4564                   24424843.6414   24424832.2584
        46.8004         36.5004
 123126156.5184   95942475.4134                   23430148.4524   23430137.3354
        44.1004         37.6004
 113259234.7374   88253975.0684                   21552519.1454   21552505.9694
        51.4004         46.9004
 129739345.5514  101095605.6464                   24688588.8044   24688574.4934
        37.2004         40.7004
 108603352.3234   84626003.0284                   20666537.8204   20666528.5364
        55.0004         50.7004
 120731605.8734   94076614.9334                   22974462.6314   22974451.2414
        46.7004         40.9004
 120220577.0934   93678382.8414                   22877225.1004   22877213.2764
        47.0004         42.9004
 113314944.2174   88297367.3774                   21563127.9274   21563119.4154
        52.0004         44.1004
 135158395.7604  105318206.8734                   25719828.8614   25719816.6904
        31.1004         34.2004
 129955831.3834  101264298.8314                   24729784.0214   24729772.9524
        39.3004         34.8004
 14 10 11 15 21  0.0000000  0 11G01G02G04G06G12G17G20G24G28G30G32
 124736414.7784   97197212.1734                   23736571.2704   23736554.9264
        39.7004         41.1004
 128251172.6314   99936009.4784                   24405392.0014   24405381.3034
        45.7004         36.9004
 123228994.2074   96022608.4704                   23449719.0764   23449707.8434
        45.1004         36.0004
 113177825.7684   88190539.5524                   21537027.2004   21537013.9734
        51.3004         47.0004
 129635618.0624  101014778.9654                   24668847.3434   24668840.3544
        42.9004         35.3004
 108620571.8114   84639420.7704                   20669814.5464   20669805.8304
        55.2004         50.7004
 120703219.0414   94054495.4334                   22969060.2004   22969049.4474
        46.9004         41.1004
 120180501.8974   93647155.4014                   22869599.2664   22869588.3924
        47.6004         42.5004
 113371337.7734   88341310.3584                   21573859.7744   21573850.9604
        52.3004         44.1004
 135271855.8554  105406617.3444                   25741425.5244   25741405.0234
        35.8004         35.6004
 129988729.3544  101289933.5424                   24736046.9484   24736034.3514
        39.8004         34.3004
 14 10 11 15 21 30.0000000  0 11G01G02G04G06G12G17G20G24G28G30G32
 124837042.2014   97275623.0204                   23755720.2484   23755704.0784
        40.5004         40.1004
 128149058.5004   99856440.0774                   24385960.6644   24385949.9834
        45.0004         37.7004
 123332070.9244   96102927.9044                   23469332.6974   23469322.2274
        46.3004         35.1004
 113096811.8294   88127411.8714                   21521611.4874   21521597.2244
        51.4004         47.0004
 129531909.5194  100933967.1504                   24649116.6474   24649103.1294
        39.9004         39.9004
 108638065.0354   84653051.8084                   20673143.4134   20673134.5354
        55.1004         50.3004
 120675366.2374   94032792.0804                   22963759.5294   22963750.0984
        47.5004         40.2004
 120140976.7824   93616356.5724                   22862078.6984   22862065.7684
        46.9004         42.7004
 113428076.1584   88385522.0334                   21584656.9314   21584647.9054
        51.9004         43.3004
 135385212.7294  105494947.2684                   25762986.9334   25762976.7104
        27.3004         38.6004
 130022161.7964  101315984.7414                   24742407.2024   24742392.6834
        37.5004         36.8004
 14 10 11 15 22  0.0000000  0 10G01G02G04G06G12G17G20G24G28G32
 124937877.9164   97354196.2044                   23774908.0654   23774893.2734
        40.9004         39.7004
 128047043.2154   99776947.7794                   24366548.4434   24366536.8944
        42.4004         39.1004
 123435384.3474   96183431.7584                   23488990.4204   23488982.5394
        46.0004         35.3004
 113016195.0674   88064593.6654                   21506269.8534   21506258.0934
        52.1004         46.1004
 129428222.0284  100853171.6294                   24629380.2634   24629370.6324
        38.1004         34.5004
 108655831.7994   84666896.0124                   20676524.4754   20676515.7444
        55.2004         50.1004
 120648049.3304   94011506.2874                   22958561.3284   22958551.6654
        47.4004         40.1004
 120102003.8004   93585987.9624                   22854662.0014   22854650.6544
        47.2004         42.4004
 113485159.6184   88430002.5994                   21595519.2294   21595510.7054
        51.9004         43.2004
 130056128.0044  101342451.8474                   24748872.5124   24748856.3004
        37.9004         34.1004
 14 10 11 15 22 30.0000000  0 10G01G02G04G06G12G17G20G24G28G32
 125038919.1424   97432929.5124                   23794136.4284   23794117.9224
        38.2004         38.6004
 127945128.2124   99697533.6684                   24347154.0804   24347140.5644
        41.2004         41.4004
 123538931.5654   96264117.7994                   23508696.7784   23508685.7814
        44.3004         36.6004
 112935977.1034   88002086.2254                   21491005.1954   21490992.2674
        51.7004         46.5004
 129324556.6454  100772393.3714                   24609656.8314   24609647.8284
        43.1004         37.8004
 108673871.5344   84680952.9124                   20679957.1864   20679948.6234
        54.9004         49.8004
 120621269.7544   93990639.2014                   22953465.8934   22953456.1664
        47.2004         39.9004
 120063583.7784   93556050.2464                   22847351.9004   22847338.3424
        46.2004         43.3004
 113542587.2474   88474751.3384                   21606447.9854   21606438.8064
        51.8004         43.7004
 130090626.9444  101369334.0344                   24755434.0594   24755424.5184
        40.1004         34.7004
 14 10 11 15 23  0.0000000  0 10G01G02G04G06G12G17G20G24G28G32
 125140163.2614   97511820.9444                   23813402.4704   23813387.0574
        39.9004         37.5004
 127843315.8164   99618199.4654                   24327780.0824   24327768.4094
        43.5004         40.7004
 123642709.8854   96344983.8554                   23528445.9444   23528435.6624
        45.8004         37.1004
 112856159.6784   87939890.8894                   21475816.8424   21475803.0644
        52.3004         47.1004
 129220915.2004  100691633.7964                   24589930.8494   24589924.8624
        40.2004         34.6004
 108692183.5484   84695221.9854                   20683441.5754   20683432.9944
        55.2004         50.1004
 120595028.8694   93970191.8714                   22948471.4314   22948461.3544
        47.2004         40.6004
 120025718.3494   93526544.6734                   22840146.9814   22840132.2774
        46.0004         44.0004
 113600358.9744   88519768.2094                   21617441.3644   21617432.8014
        52.0004         43.3004
 130125657.6044  101396630.5554                   24762101.2234   24762090.1144
        40.0004         34.2004
 14 10 11 15 23 30.0000000  0 10G01G02G04G06G12G17G20G24G28G32
 125241607.7774   97590868.4844                   23832707.9224   23832691.8164
        39.9004         39.4004
 127741607.0914   99538946.0234                   24308423.7594   24308415.0004
        46.0004         38.6004
 123746716.5654   96426027.8834                   23548237.7754   23548227.1804
        46.1004         36.9004
 112776744.5934   87878009.0504                   21460704.4594   21460691.0434
        52.0004         47.2004
 129117299.0514  100610893.8714                   24570216.1384   24570205.0404
        40.7004         40.3004
 108710767.3714   84709702.8654                   20686977.7924   20686969.3334
        54.8004         50.0004
 120569328.4124   93950165.6404                   22943581.1894   22943569.8714
        46.6004         40.9004
 119988408.1524   93497471.7874                   22833046.3724   22833033.5944
        46.5004         43.6004
 113658474.5754   88565053.0414                   21628500.7564   21628492.3264
        52.2004         43.6004
 130161218.9754  101424340.6334                   24768869.7944   24768857.2054
        40.1004         35.8004
 14 10 11 15 24  0.0000000  0 10G01G02G04G06G12G17G20G24G28G32
 125343250.2894   97670070.3194                   23852049.7884   23852031.9974
        39.9004         40.2004
 127640004.0044   99459774.8554                   24289089.8024   24289079.6234
        45.6004         37.7004
 123850948.8924   96507247.7314                   23568072.7864   23568059.4074
        44.5004         36.8004
 112697733.8954   87816442.3094                   21445668.7944   21445656.5704
        52.8004         46.9004
 129013710.4934  100530175.5544                   24550502.8594   24550493.3854
        40.1004         38.5004
 108729622.8534   84724395.4124                   20690565.8364   20690557.9154
        55.2004         49.9004
 120544169.8934   93930561.6854                   22938793.2904   22938783.0154
        46.6004         40.2004
 119951655.2524   93468833.1224                   22826052.7264   22826038.9024
        46.3004         43.7004
 113716933.9664   88610605.7304                   21639625.1104   21639616.0494
        51.8004         43.8004
 130197310.4484  101452463.7544                   24775738.1064   24775726.0064
        40.5004         35.5004
 14 10 11 15 24 30.0000000  0 10G01G02G04G06G12G17G20G24G28G32
 125445088.1904   97749424.4014                   23871427.7444   23871412.0194
        40.7004         39.7004
 127538508.2424   99380687.3344                   24269775.8424   24269764.5144
        43.8004         38.1004
 123955404.4344   96588641.5134                   23587949.7664   23587939.0474
        44.5004         34.5004
 112619129.2224   87755191.9504                   21430710.9314   21430698.2194
        52.6004         46.9004
 128910150.3514  100449479.2684                   24530795.1444   24530787.4414
        42.6004         36.9004
 108748749.0644   84739298.9054                   20694205.7304   20694197.5784
        55.3004         49.8004
 120519554.8594   93911381.2024                   22934108.2064   22934097.9414
        46.0004         40.1004
 119915460.4264   93440629.3264                   22819164.7104   22819152.0034
        47.2004         44.0004
 113775736.6174   88656425.9254                   21650814.7894   21650806.0304
        51.8004         43.3004
 130233930.7214  101480998.9304                   24782708.6194   24782695.5114
        41.1004         35.7004
 14 10 11 15 25  0.0000000  0 10G01G02G04G06G12G17G20G24G28G32
 125547118.6634   97828928.5444                   23890842.3774   23890826.2894
        39.6004         38.5004
 127437121.2574   99301684.6334                   24250482.5844   24250471.6354
        42.9004         38.1004
 124060080.0324   96670206.8094                   23607868.1134   23607858.7844
        44.8004         36.0004
 112540932.1104   87694259.1574                   21415830.5934   21415817.4574
        52.7004         47.2004
 128806620.3944  100368806.5644                   24511094.5394   24511086.1644
        41.9004         36.3004
 108768145.2554   84754412.7854                   20697896.7764   20697888.4524
        55.2004         49.9004
 120495484.4364   93892625.0794                   22929528.6764   22929518.7504
        46.9004         39.1004
 119879824.3024   93412860.9024                   22812383.1054   22812371.9584
        48.0004         43.3004
 113834882.1414   88702513.2684                   21662069.9694   21662060.9304
        51.7004         43.5004
 130271078.6834  101509945.2974                   24789776.5344   24789765.0544
        41.6004         34.9004
 14 10 11 15 25 30.0000000  0 10G01G02G04G06G12G17G20G24G28G32
 125649339.5194   97908581.0994                   23910293.1464   23910281.1834
        41.9004         37.3004
 127335845.2794   99222768.4294                   24231209.6494   24231198.0234
        41.3004         39.5004
 124164973.2694   96751941.6304                   23627831.5974   23627818.8484
        44.6004         37.0004
 112463144.6884   87633645.6104                   21401027.9644   21401015.6744
        52.6004         47.0004
 128703122.7124  100288158.9294                   24491398.6744   24491392.4444
        41.1004         34.5004
 108787810.9744   84769736.6744                   20701639.3444   20701630.7524
        55.0004         50.0004
 120471960.5214   93874294.8344                   22925051.8354   22925042.9254
        46.7004         39.0004
 119844749.0244   93385529.4774                   22805708.4494   22805697.1444
        47.7004         43.5004
 113894370.4234   88748867.7104                   21673389.8884   21673381.5384
        51.9004         43.7004
 130308753.5164  101539302.2034                   24796946.4394   24796933.6514
        40.9004         37.3004
 14 10 11 15 26  0.0000000  0 10G01G02G04G06G12G17G20G24G28G32
 125751748.2354   97988379.9764                   23929784.1284   23929770.9334
        42.9004         39.1004
 127234681.7674   99143939.9044                   24211958.6324   24211947.9074
        43.4004         39.3004
 124270081.5154   96833844.0564                   23647830.8594   23647818.5604
        43.1004         37.0004
 112385768.6204   87573352.5944                   21386303.7514   21386291.9224
        52.7004         46.8004
 128599658.8364  100207537.6974                   24471714.2024   24471702.1644
        40.5004         40.1004
 108807746.1074   84785270.5094                   20705433.0904   20705424.3704
        55.0004         50.1004
 120448984.5874   93856391.5694                   22920680.2214   22920671.1284
        46.9004         39.4004
 119810235.0544   93358635.4584                   22799140.5714   22799129.2184
        47.4004         43.7004
 113954201.2614   88795489.0784                   21684775.5204   21684766.5234
        51.3004         43.3004
 130346954.1654  101569068.8924                   24804214.1854   24804203.6534
        41.0004         36.7004
 14 10 11 15 26 30.0000000  0 10G01G02G04G06G12G17G20G24G28G32
 125854342.1574   98068323.1624                   23949307.4884   23949294.5954
        43.5004         38.5004
 127133632.1894   99065200.1194                   24192729.3064   24192719.9664
        45.0004         39.7004
 124375402.0064   96915911.8334                   23667873.8384   23667862.3614
        42.6004         35.6004
 112308805.5864   87513381.4194                   21371658.1714   21371646.3494
        53.1004         46.7004
 128496230.1354  100126943.9024                   24452029.7904   24452020.7604
        42.6004         37.8004
 108827949.8904   84801013.6994                   20709277.6444   20709269.0154
        55.4004         49.7004
 120426558.0644   93838916.3974                   22916412.4814   22916402.1854
        46.4004         39.2004
 119776283.7754   93332179.8954                   22792680.2504   22792669.5284
        48.4004         42.5004
 114014374.1774   88842377.0034                   21696225.8264   21696217.6514
        51.7004         42.5004
 130385679.4834  101599244.3984                   24811586.5254   24811574.7594
        42.4004         35.2004
 14 10 11 15 27  0.0000000  0 10G01G02G04G06G12G17G20G24G28G32
 125957118.5564   98148408.5554                   23968864.5994   23968851.2884
        43.6004         38.8004
 127032698.1894   98986550.4024                   24173522.4064   24173511.7694
        44.7004         39.9004
 124480931.6694   96998142.5804                   23687955.0284   23687941.8854
        42.0004         36.2004
 112232257.0384   87453733.2084                   21357091.3954   21357078.9364
        52.8004         47.5004
 128392837.8514  100046378.5284                   24432356.5204   24432350.0414
        44.8004         37.8004
 108848421.6344   84816965.6934                   20713172.9914   20713164.5824
        55.4004         50.0004
 120404681.8964   93821870.0224                   22912249.2064   22912237.6274
        45.6004         40.0004
 119742896.2774   93306163.6314                   22786326.4404   22786314.9114
        47.8004         43.5004
 114074888.2364   88889530.7534                   21707740.9554   21707731.9674
        51.8004         42.8004
 130424928.2144  101629827.7704                   24819052.8334   24819041.5394
        41.0004         36.9004
 14 10 11 15 27 30.0000000  0 10G01G02G04G06G12G17G20G24G28G32
 126060075.2194   98228634.4014                   23988457.1854   23988442.2364
        42.9004         38.9004
 126931881.9084   98907992.4014                   24154337.7334   24154327.1214
        44.5004         39.7004
 124586668.2754   97080534.6494                   23708076.5144   23708062.9804
        41.5004         37.2004
 112156125.0154   87394409.5924                   21342604.3514   21342591.2614
        52.9004         47.7004
 128289484.2904   99965843.2604                   24412687.1844   24412677.3884
        41.7004         36.6004
 108869161.0984   84833126.2924                   20717119.5244   20717111.4874
        55.6004         49.7004
 120383357.3114   93805253.4634                   22908190.8744   22908179.9784
        45.6004         39.5004
 119710073.4574   93280587.3794                   22780080.5634   22780068.7714
        47.8004         43.5004
 114135743.9664   88936950.7634                   21719322.0384   21719313.7244
        52.2004         42.8004
 130464699.4174  101660818.3024                   24826622.1764   24826608.1464
        40.0004         36.1004
 14 10 11 15 28  0.0000000  0 10G01G02G04G06G12G17G20G24G28G32
 126163209.7084   98308998.8324                   24008081.6984   24008069.0344
        44.5004         37.5004
 126831184.7584   98829527.2294                   24135175.3124   24135165.3264
        44.5004         39.2004
 124692609.2554   97163085.9324                   23728235.4904   23728223.1414
        41.5004         37.1004
 112080411.2874   87335411.9264                   21328196.1344   21328183.7114
        53.2004         47.3004
 128186171.3174   99885339.5564                   24393027.2014   24393014.8854
        39.1004         34.6004
 108890167.5584   84849494.9354                   20721117.0664   20721108.2634
        55.1004         49.7004
 120362586.4854   93789068.3584                   22904238.8404   22904227.5854
        46.1004         39.4004
 119677816.8224   93255452.3054                   22773942.2794   22773930.9894
        47.9004         42.8004
 114196941.0504   88984636.7174                   21730967.8954   21730959.1954
        51.5004         43.0004
 130504992.0724  101692215.1574                   24834289.4714   24834276.6334
        39.4004         36.5004
 14 10 11 15 28 30.0000000  0 10G01G02G04G06G12G17G20G24G28G32
 126266518.9934   98389499.4754                   24027742.6744   24027727.4374
        43.6004         39.5004
 126730608.0374   98751155.9244                   24116036.6844   24116025.2674
        43.6004         41.0004
 124798751.2654   97245793.8574                   23748434.0794   23748419.7084
        39.5004         36.6004
 112005117.0484   87276741.1254                   21313868.0914   21313855.3274
        53.0004         48.0004
 128082899.1734   99804867.7634                   24373377.1504   24373365.4614
        42.6004         37.8004
 108911440.1424   84866070.9364                   20725165.3374   20725156.4964
        55.1004         49.9004
 120342369.7554   93773315.0344                   22900391.0514   22900381.1884
        46.7004         39.4004
 119646126.3694   93230758.4054                   22767911.2904   22767899.5004
        47.2004         43.6004
 114258478.4484   89032587.8574                   21742677.8394   21742668.8324
        51.3004         44.2004
 130545804.3654  101724016.9804                   24842054.1084   24842037.4944
        37.1004         37.7004
 14 10 11 15 29  0.0000000  0 10G01G02G04G06G12G17G20G24G28G32
 126370001.0174   98470134.7004                   24047434.6824   24047420.3024
        44.2004         38.9004
 126630153.7624   98672880.0254                   24096920.4444   24096908.7284
        43.7004         40.0004
 124905092.4014   97328656.9644                   23768670.1084   23768656.6144
        39.9004         36.4004
 111930244.3484   87218398.7924                   21299620.1644   21299607.5514
        53.4004         47.9004
 127979670.9104   99724430.0914                   24353733.5194   24353724.3474
        43.0004         39.2004
 108932978.8634   84882854.3214                   20729264.0584   20729255.5364
        55.4004         49.7004
 120322709.0804   93757994.9814                   22896651.1914   22896641.0104
        47.4004         39.1004
 119615004.2104   93206507.3484                   22761990.2344   22761976.0414
        46.6004         44.5004
 114320355.8904   89080803.9434                   21754453.0404   21754442.9504
        50.6004         44.1004
 130587135.7074  101756223.2144                   24849920.0944   24849905.0594
        38.6004         36.7004
 14 10 11 15 29 30.0000000  0 10G01G02G04G06G12G17G20G24G28G32
 126473653.1884   98550902.5024                   24067158.3274   24067144.8894
        43.9004         38.6004
 126529823.5364   98594700.7564                   24077827.4874   24077817.4844
        44.3004         39.9004
 125011629.8464   97411673.0124                   23788943.3874   23788927.7734
        38.3004         37.2004
 111855794.6714   87160386.0714                   21285452.3204   21285440.3104
        53.1004         47.4004
 127876488.2394   99644028.0024                   24334094.9574   24334083.7624
        39.6004         37.0004
 108954782.5874   84899844.2094                   20733413.0284   20733404.4364
        55.1004         49.7004
 120303605.6564   93743109.1204                   22893015.1344   22893006.1344
        47.1004         38.6004
 119584450.9104   93182699.5474                   22756176.9584   22756163.1214
        46.7004         44.0004
 114382573.1164   89129284.8214                   21766292.5114   21766283.0714
        50.9004         43.8004
 130628984.6634  101788832.8644                   24857882.9824   24857869.2964
        38.1004         35.4004
 14 10 11 15 30  0.0000000  0 10G01G02G04G06G12G17G20G24G28G32
 126577472.9444   98631800.8894                   24086915.2644   24086901.6554
        44.2004         38.3004
 126429618.8074   98516619.2764                   24058759.8544   24058751.2594
        45.5004         39.3004
 125118360.6104   97494839.7974                   23809254.2424   23809237.5644
        38.6004         37.7004
 111781769.6294   87102704.2254                   21271366.1294   21271353.5714
        53.1004         47.4004
 127773352.3104   99563662.3134                   24314469.3194   24314460.9204
        41.6004         34.3004
 108976850.9374   84917040.2994                   20737612.3524   20737603.5474
        55.0004         49.5004
 120285060.6714   93728658.4084                   22889486.5054   22889476.8734
        47.5004         38.3004
 119554467.1094   93159335.4924                   22750471.0314   22750456.1944
        46.0004         44.6004
 114445129.7994   89178030.2084                   21778197.2394   21778187.0944
        51.2004         43.7004
 130671349.9354  101821844.7864                   24865945.4354   24865932.3034
        38.2004         33.3004
 14 10 11 15 30 30.0000000  0 10G01G02G04G06G12G17G20G24G28G32
 126681457.8234   98712827.9334                   24106704.0934   24106688.4274
        43.2004         40.1004
 126329541.5714   98438637.1094                   24039716.0654   24039706.9204
        46.4004         40.3004
 125225282.2754   97578155.2294                   23829601.8794   23829583.5324
        37.6004         38.2004
 111708170.8994   87045354.5884                   21257360.5684   21257348.1674
        52.9004         48.0004
 127670264.7274   99483334.2634                   24294853.7884   24294845.4754
        43.7004         35.3004
 108999183.9844   84934442.6534                   20741862.2084   20741854.0834
        55.2004         49.8004
 120267075.1444   93714643.6414                   22886064.0074   22886054.8264
        47.5004         39.2004
 119525053.9444   93136416.1304                   22744873.9344   22744858.5584
        45.4004         45.3004
 114508025.1964   89227039.5394                   21790165.4774   21790155.8234
        51.4004         44.3004
 130714230.1574  101855258.0174                   24874102.9904   24874088.4524
        36.8004         35.2004
 14 10 11 15 31  0.0000000  0 10G01G02G04G06G12G17G20G24G28G32
 126785605.4874   98793981.8804                   24126521.9854   24126508.1664
        44.0004         38.2004
 126229593.4184   98360755.5354                   24020696.1484   24020685.9544
        45.5004         40.7004
 125332392.2134   97661617.4124                   23849983.3934   23849969.6104
        39.7004         36.6004
 111635000.2314   86988338.4974                   21243436.5944   21243425.0164
        53.3004         47.3004
 127567226.6584   99403044.7724                   24275248.1504   24275238.9314
        42.7004         36.6004
 109021780.9454   84952050.6434                   20746162.2144   20746153.7274
        55.0004         49.8004
 120249650.7094   93701066.0844                   22882748.2304   22882738.4214
        47.2004         39.4004
 119496212.7454   93113942.4264                   22739385.8514   22739370.5894
        45.6004         44.7004
 114571259.3254   89276312.8034                   21802198.8614   21802189.4974
        51.1004         44.0004
 130757624.3184  101889071.6634                   24882361.0154   24882347.9704
        38.3004         33.9004
 14 10 11 15 31 30.0000000  0 10G01G02G04G06G12G17G20G24G28G32
 126889913.3974   98875260.6434                   24146372.5234   24146357.4944
        43.8004         39.1004
 126129775.8824   98282975.7514                   24001702.2444   24001689.4254
        43.0004         41.7004
 125439687.8174   97745224.2134                   23870401.9794   23870387.9214
        40.9004         37.3004
 111562259.1004   86931657.1294                   21229594.3284   21229582.4664
        53.1004         47.0004
 127464241.3824   99322796.4664                   24255648.6574   24255640.0654
        40.7004         37.0004
 109044641.1594   84969863.7544                   20750512.6854   20750504.0114
        55.1004         49.4004
 120232788.2844   93687926.4554                   22879538.3564   22879529.2164
        47.2004         38.6004
 119467943.9204   93091914.7434                   22734006.1074   22733992.3604
        46.1004         43.4004
 114634831.5864   89325849.5404                   21814295.8514   21814287.1764
        51.2004         43.0004
 130801530.8834  101923284.5144                   24890717.1914   24890703.0534
        38.3004         34.7004
 14 10 11 15 32  0.0000000  0 11G01G02G04G06G10G12G17G20G24G28G32
 126994379.1744   98956662.4164                   24166250.6974   24166236.7904
        43.3004         37.6004
 126030090.6204   98205299.0264                   23982732.1394   23982720.8294
        43.2004         40.8004
 125547166.3784   97828973.6584                   23890853.8684   23890841.5694
        41.2004         35.4004
 111489949.2454   86875311.7984                   21215833.9274   21215821.7554
        53.0004         47.3004
 135344578.9104  105463320.4374                   25755230.4834   25755217.3314
        33.4004         31.7004
 127361309.9874   99242590.2664                   24236061.8894   24236055.4834
        45.2004         35.4004
 109067764.4084   84987881.8544                   20754912.9624   20754904.5434
        55.3004         49.7004
 120216489.0794   93675225.6884                   22876437.3314   22876427.3984
        47.6004         39.5004
 119440248.1304   93070333.5754                   22728735.0324   22728720.1624
        45.5004         43.9004
 114698741.6264   89375649.4864                   21826457.6504   21826448.6284
        51.3004         42.8004
 130845948.8294  101957895.8824                   24899173.4434   24899157.5804
        39.9004         33.6004
 14 10 11 15 32 30.0000000  0 11G01G02G04G06G10G12G17G20G24G28G32
 127099000.1794   99038185.1594                   24186159.1584   24186146.7054
        43.2004         37.8004
 125930539.2644   98127726.6554                   23963788.3164   23963778.7664
        45.1004         39.3004
 125654825.2934   97912863.6404                   23911342.7444   23911326.7044
        40.8004         36.5004
 111418071.9744   86819303.5604                   21202156.6384   21202143.7274
        52.8004         47.8004
 135237603.6424  105379963.0514                   25734880.4144   25734860.0144
        36.7004         35.7004
 127258434.2044   99162427.1784                   24216485.8034   24216476.5314
        44.1004         36.4004
 109091149.4934   85006103.9784                   20759363.0724   20759354.0814
        54.9004         49.7004
 120200754.0964   93662964.6034                   22873443.6224   22873434.3214
        47.7004         39.3004
 119413127.1044   93049200.2664                   22723574.0854   22723561.9444
        46.3004         43.5004
 114762988.3784   89425711.7944                   21838683.9604   21838674.7304
        51.4004         43.2004
 130890876.5344  101992904.4124                   24907717.3794   24907705.0214
        38.7004         32.5004
 14 10 11 15 33  0.0000000  0 11G01G02G04G06G10G12G17G20G24G28G32
 127203774.0694   99119827.0244                   24206096.7314   24206081.3464
        41.2004         39.5004
 125831123.6424   98050259.9954                   23944870.1174   23944859.4784
        46.6004         39.7004
 125762662.2024   97996892.2514                   23931862.4274   23931850.4224
        42.5004         35.9004
 111346629.0104   86763633.7384                   21188561.5514   21188548.7194
        52.6004         48.2004
 135130458.9664  105296473.6414                   25714488.0364   25714469.8044
        33.4004         36.3004
 127155615.8514   99082308.9084                   24196919.6144   24196912.2704
        40.9004         37.5004
 109114796.3244   85024530.0394                   20763863.0764   20763853.7654
        54.6004         49.9004
 120185584.5974   93651144.1904                   22870557.0044   22870547.8794
        47.5004         39.8004
 119386581.1104   93028515.0364                   22718522.6744   22718510.2164
        46.8004         43.6004
 114827571.6784   89476036.3774                   21850973.5914   21850964.7594
        51.7004         43.3004
 130936312.8524  102028309.2654                   24916364.3214   24916353.5914
        39.1004         32.9004
 14 10 11 15 33 30.0000000  0 11G01G02G04G06G10G12G17G20G24G28G32
 127308698.4304   99201586.1474                   24226063.8634   24226048.2214
        41.0004         39.4004
 125731845.1254   97972900.1844                   23925977.5024   23925968.3704
        46.8004         40.0004
 125870674.1454   98081057.2934                   23952416.1204   23952403.7834
        42.6004         36.5004
 111275621.8984   86708303.5424                   21175049.2094   21175036.5304
        52.7004         48.1004
 135023147.3664  105212854.1384                   25694065.2894   25694049.8894
        31.3004         33.8004
 127052856.3624   99002236.6234                   24177365.8844   24177356.6684
        41.2004         38.8004
 109138705.0194   85043160.1514                   20768412.5274   20768403.9134
        54.7004         49.8004
 120170981.8734   93639765.4224                   22867777.9514   22867767.6244
        46.8004         40.3004
 119360610.8134   93008278.4144                   22713579.9914   22713569.2124
        47.7004         43.4004
 114892491.5034   89526623.1684                   21863327.2794   21863318.8564
        51.7004         42.8004
 130982256.3434  102064109.2934                   24925106.4924   24925097.1034
        39.4004         34.0004
 14 10 11 15 34  0.0000000  0 11G01G02G04G06G10G12G17G20G24G28G32
 127413770.5964   99283460.4674                   24246058.8954   24246042.5764
        41.0004         38.9004
 125632705.2754   97895648.4264                   23907111.2884   23907101.7814
        45.5004         39.7004
 125978858.6584   98165356.7894                   23973002.7294   23972990.8924
        43.4004         35.7004
 111205051.9694   86653314.0154                   21161620.5694   21161607.6204
        53.3004         48.1004
 134915671.7444  105129106.8994                   25673616.7544   25673599.4654
        34.9004         34.6004
 126950157.4024   98922211.4524                   24157821.8664   24157813.4724
        44.5004         38.0004
 109162873.9114   85061993.0254                   20773011.9244   20773003.3414
        55.2004         49.9004
 120156946.5424   93628828.7734                   22865107.0134   22865097.4834
        47.5004         39.9004
 119335217.1584   92988491.1004                   22708748.3034   22708737.9714
        48.5004         43.2004
 114957746.9474   89577471.4674                   21875745.3314   21875735.7534
        51.2004         42.8004
 131028705.3774  102100303.2814                   24933945.8594   24933934.2034
        39.7004         34.9004
 14 10 11 15 34 30.0000000  0 11G01G02G04G06G10G12G17G20G24G28G32
 127518988.1824   99365448.0694                   24266080.1604   24266066.6444
        40.8004         36.5004
 125533705.7214   97818506.0234                   23888273.1254   23888262.0304
        45.3004         39.9004
 126087212.8504   98249788.5094                   23993622.9424   23993609.1844
        43.2004         36.9004
 111134920.7254   86598666.3184                   21148274.9044   21148261.7674
        53.0004         47.9004
 134808033.6174  105045233.0374                   25653134.3654   25653114.8684
        33.6004         35.7004
 126847520.3744   98842234.4634                   24138291.5664   24138282.4844
        42.8004         37.5004
 109187302.7984   85081028.5014                   20777660.9174   20777651.6824
        54.9004         49.5004
 120143479.6144   93618335.0574                   22862544.5214   22862534.7404
        47.0004         40.1004
 119310400.7084   92969153.5614                   22704025.5184   22704013.9264
        47.7004         43.3004
 115023337.5694   89628580.9744                   21888227.0704   21888217.7704
        50.6004         42.0004
 131075658.6804  102136890.2824                   24942881.6744   24942870.6434
        40.0004         33.9004
 14 10 11 15 35  0.0000000  0 11G01G02G04G06G10G12G17G20G24G28G32
 127624349.1454   99447547.3924                   24286131.9854   24286115.0734
        40.1004         37.8004
 125434848.2784   97741474.3524                   23869460.4714   23869450.1134
        46.0004         40.1004
 126195734.9284   98334351.0654                   24014272.5544   24014260.3334
        43.4004         35.1004
 111065230.0764   86544361.9374                   21135013.4484   21134999.9514
        52.8004         48.6004
 134700236.0714  104961235.0164                   25632624.4054   25632605.6954
        34.8004         32.6004
 126744948.0484   98762307.9704                   24118768.8854   24118759.3684
        38.2004         35.7004
 109211991.4834   85100266.4144                   20782358.9364   20782349.6434
        54.8004         49.8004
 120130582.6714   93608285.5144                   22860091.2594   22860081.4574
        47.5004         40.1004
 119286162.6954   92950266.7614                   22699414.0034   22699400.6894
        47.2004         44.3004
 115089262.9184   89679951.3104                   21900772.1344   21900762.1674
        50.3004         42.9004
 131123115.1354  102173869.3604                   24951914.2734   24951899.5624
        38.8004         35.1004
 14 10 11 15 35 30.0000000  0 11G01G02G04G06G10G12G17G20G24G28G32
 127729850.8604   99529756.4004                   24306207.9384   24306191.6354
        39.8004         38.8004
 125336134.6604   97664554.7444                   23850675.2074   23850666.3374
        47.5004         40.1004
 126304421.7424   98419041.9924                   24034955.5514   24034941.9394
        42.9004         36.2004
 110995981.2904   86490401.8604                   21121835.2674   21121822.5014
        53.0004         48.0004
 134592281.3454  104877114.5114                   25612078.8154   25612061.6604
        34.9004         29.9004
 126642442.4164   98682433.4044                   24099265.6014   24099258.4584
        42.7004         37.1004
 109236939.7064   85119706.5644                   20787106.3534   20787097.3424
        54.8004         49.7004
 120118256.3054   93598680.5644                   22857745.4444   22857735.4174
        47.1004         40.0004
 119262503.2834   92931830.8294                   22694912.1984   22694898.4064
        46.9004         44.6004
 115155522.4454   89731581.9994                   21913381.4524   21913371.3834
        50.7004         43.6004
 131171073.1724  102211239.2624                   24961039.1254   24961026.7954
        39.3004         34.5004
 14 10 11 15 36  0.0000000  0 11G01G02G04G06G10G12G17G20G24G28G32
 127835490.9224   99612073.2304                   24326307.6814   24326292.7384
        39.0004         36.5004
 125237566.3934   97587748.3764                   23831918.7914   23831909.2864
        47.1004         40.1004
 126413270.8164   98503859.3254                   24055667.4744   24055655.4494
        43.0004         36.7004
 110927175.8864   86436787.2574                   21108742.1664   21108729.6774
        53.3004         47.7004
 134484171.9664  104792873.5874                   25591504.8804   25591485.4704
        34.6004         33.2004
 126540004.5614   98602611.6424                   24079774.7794   24079764.2714
        44.3004         39.0004
 109262146.6564   85139348.3144                   20791902.9564   20791894.7904
        55.3004         49.2004
 120106501.4974   93589521.0044                   22855508.1184   22855498.2444
        47.0004         39.5004
 119239423.4294   92913846.5034                   22690520.3724   22690507.5504
        47.3004         44.1004
 115222115.4044   89783472.5084                   21926053.5434   21926042.9134
        50.4004         44.0004
 131219531.2904  102248998.9204                   24970262.0414   24970246.7124
        39.3004         35.0004
 14 10 11 15 36 30.0000000  0 11G01G02G04G06G10G12G17G20G24G28G32
 127941266.7104   99694495.8054                   24346439.6594   24346421.7944
        38.0004         38.3004
 125139144.6044   97511056.1814                   23813189.5044   23813181.0044
        46.8004         39.2004
 126522279.2634   98588800.8414                   24076412.5004   24076400.7534
        43.4004         36.9004
 110858815.0014   86383519.0574                   21095733.6554   21095721.7894
        53.8004         47.5004
 134375910.2014  104708513.9874                   25570901.8124   25570887.5824
        37.2004         30.9004
 126437636.4634   98522844.2884                   24060294.9594   24060282.3304
        40.5004         39.9004
 109287611.3384   85159190.8864                   20796748.4434   20796740.1944
        55.0004         49.1004
 120095319.0444   93580807.4374                   22853380.5004   22853368.2564
        45.8004         40.0004
 119216923.7784   92896314.2764                   22686238.6124   22686225.9834
        47.6004         43.9004
 115289041.2224   89835622.4024                   21938788.9864   21938778.4694
        50.0004         44.1004
 131268487.7064  102287146.8224                   24979577.6164   24979563.1434
        39.6004         34.7004
 14 10 11 15 37  0.0000000  0 11G01G02G04G06G10G12G17G20G24G28G32
 128047176.0244   99777022.4134                   24366589.8354   24366576.5754
        38.7004         36.7004
 125040871.4394   97434479.7924                   23794488.3644   23794478.7674
        46.7004         40.0004
 126631444.9694   98673864.8994                   24097186.4344   24097174.4464
        43.9004         35.9004
 110790900.3874   86330598.5834                   21082809.4944   21082797.7104
        53.8004         47.5004
 134267498.7624  104624037.6484                   25550272.8714   25550254.3614
        36.7004         30.2004
 126335339.5864   98443132.4424                   24040827.8184   24040818.9814
        41.8004         36.2004
 109313333.7344   85179234.2684                   20801643.3804   20801634.9044
        55.1004         49.2004
 120084709.8874   93572540.6064                   22851362.2324   22851350.4344
        46.4004         40.0004
 119195005.0604   92879234.7474                   22682068.1064   22682056.2674
        48.4004         43.6004
 115356299.6764   89888031.4654                   21951587.7584   21951578.4974
        51.0004         43.3004
 131317941.2084  102325682.0884                   24988990.3064   24988975.3334
        40.2004         33.7004
 14 10 11 15 37 30.0000000  0 11G01G02G04G06G10G12G17G20G24G28G32
 128153216.4074   99859651.2134                   24386769.6394   24386754.9944
        38.5004         37.5004
 124942748.5204   97358020.4544                   23775816.1364   23775806.7574
        46.5004         39.7004
 126740765.2874   98759049.4454                   24117989.0414   24117977.8124
        44.4004         35.0004
 110723433.3344   86278026.8724                   21069970.8274   21069959.3444
        53.8004         47.2004
 134158939.6674  104539446.3714                   25529614.6564   25529598.2534
        38.8004         31.6004
 126233116.0184   98363477.6484                   24021371.9964   24021364.6234
        43.7004         36.8004
 109339313.1114   85199477.9004                   20806587.2434   20806578.6204
        54.6004         49.1004
 120074675.2284   93564721.4304                   22849452.6094   22849441.2624
        46.5004         39.7004
 119173667.5944   92862608.1174                   22678007.3074   22677996.3664
        48.3004         43.5004
 115423889.8264   89940699.0164                   21964450.1274   21964440.1194
        51.0004         43.9004
 131367890.1074  102364603.4354                   24998492.6784   24998478.1974
        39.0004         36.5004
 14 10 11 15 38  0.0000000  0 11G01G02G04G06G10G12G17G20G24G28G32
 128259385.6734   99942380.3894                   24406973.9554   24406958.9224
        39.1004         37.2004
 124844777.4604   97281679.4634                   23757172.2364   23757163.7684
        46.2004         40.5004
 126850237.6464   98844352.4834                   24138820.0654   24138808.9844
        43.6004         34.5004
 110656415.4554   86225805.1544                   21057217.8654   21057206.3104
        53.8004         47.1004
 134050235.7434  104454742.2694                   25508930.8594   25508910.8144
        38.3004         31.1004
 126130967.8704   98283881.5864                   24001936.4054   24001927.7294
        44.6004         37.7004
 109365549.4174   85219921.7594                   20811579.8454   20811571.0284
        54.6004         49.0004
 120065215.5144   93557350.2724                   22847651.8844   22847642.0084
        46.9004         38.5004
 119152912.2204   92846435.0774                   22674058.1054   22674045.5094
        47.5004         43.8004
 115491811.3994   89993624.7994                   21977375.1154   21977365.1994
        50.9004         43.3004
 131418333.0094  102403909.6614                   25008094.3254   25008078.0514
        38.9004         35.6004
 14 10 11 15 38 30.0000000  0 11G01G02G04G06G10G12G17G20G24G28G32
 128365681.5224  100025208.2294                   24427200.8224   24427185.8234
        39.0004         37.5004
 124746959.7874   97205458.0304                   23738558.4954   23738549.5554
        46.2004         40.6004
 126959859.7774   98929772.1964                   24159682.0914   24159671.4864
        44.0004         35.1004
 110589848.2624   86173934.6244                   21044550.6634   21044539.0434
        54.0004         47.3004
 133941389.7464  104369927.4734                   25488215.9694   25488197.4604
        37.7004         31.4004
 126028897.1184   98204345.8774                   23982513.4294   23982504.6704
        41.7004         38.3004
 109392042.2444   85240565.5014                   20816621.0584   20816612.8614
        54.8004         48.9004
 120056332.0144   93550428.1034                   22845960.7864   22845949.9574
        46.1004         39.2004
 119132739.5804   92830716.1114                   22670218.8894   22670207.0844
        47.3004         43.3004
 115560063.9004   90046808.4654                   21990362.9384   21990353.5734
        50.5004         42.3004
 131469268.5284  102443599.7244                   25017784.7604   25017774.0994
        40.3004         33.5004
 14 10 11 15 39  0.0000000  0 11G01G02G04G06G10G12G17G20G24G28G32
 128472101.2404  100108132.6234                   24447452.8094   24447436.8964
        38.5004         36.8004
 124649296.6794   97129357.0354                   23719973.3584   23719964.4574
        47.2004         39.9004
 127069628.8044   99015306.3574                   24180571.0664   24180559.7204
        44.5004         34.3004
 110523732.7824   86122416.0754                   21031968.5014   21031957.3084
        54.0004         47.1004
 133832403.6114  104285003.4824                   25467475.6134   25467460.7744
        39.9004         32.5004
 125926904.9454   98124871.4874                   23963106.0444   23963093.9134
        41.8004         39.3004
 109418790.4694   85261408.2424                   20821711.4514   20821702.5624
        54.8004         49.2004
 120048025.1374   93543955.2464                   22844380.3754   22844369.6914
        46.8004         39.1004
 119113150.0344   92815451.4804                   22666490.8644   22666478.7054
        47.1004         43.2004
 115628646.3444   90100249.2184                   22003413.9744   22003404.0114
        49.4004         41.6004
 131520694.7314  102483672.1934                   25027569.5924   25027556.7264
        38.4004         36.5004
 14 10 11 15 39 30.0000000  0 11G01G02G04G06G10G12G17G20G24G28G32
 128578642.7134  100191151.8214                   24467729.5494   24467711.4684
        38.3004         37.9004
 124551790.0974   97053377.9414                   23701417.9914   23701410.2044
        47.0004         40.3004
 127179542.3604   99100953.1694                   24201487.2684   24201473.8034
        42.6004         36.6004
 110458070.5554   86071250.7114                   21019474.0464   21019461.8044
        53.8004         47.5004
 133723280.2324  104199972.5814                   25446709.4904   25446693.9994
        39.6004         34.7004
 125824993.5964   98045459.9904                   23943710.1914   23943700.8654
        43.8004         37.9004
 109445794.0404   85282449.9374                   20826849.7554   20826841.1304
        54.6004         49.1004
 120040296.0314   93537932.5794                   22842909.6644   22842899.3274
        46.9004         39.3004
 119094143.7014   92800641.3314                   22662873.8604   22662862.1954
        46.9004         43.2004
 115697558.2444   90153946.6814                   22016527.2954   22016517.8434
        49.0004         40.0004
 131572610.0034  102524125.7514                   25037448.9754   25037438.2184
        39.5004         34.0004
 14 10 11 15 40  0.0000000  0 11G01G02G04G06G10G12G17G20G24G28G32
 128685303.5324  100274263.9984                   24488022.5424   24488007.3884
        38.5004         36.8004
 124454441.5514   96977522.0444                   23682894.1804   23682885.0214
        46.3004         40.6004
 127289597.8264   99186710.5754                   24222429.0464   24222417.2544
        42.9004         35.7004
 110392862.9334   86020439.5954                   21007066.1224   21007052.7164
        53.5004         48.4004
 133614022.3154  104114836.8444                   25425917.8764   25425901.2824
        37.9004         36.1004
 125723165.2174   97966113.0834                   23924333.3474   23924323.1984
        42.1004         38.8004
 109473052.2964   85303690.0914                   20832037.3864   20832028.2324
        54.5004         49.6004
 120033145.2944   93532360.6184                   22841549.1834   22841538.2654
        46.9004         39.9004
 119075721.8994   92786286.6544                   22659368.8324   22659356.8124
        47.2004         43.4004
 115766799.0264   90207900.4744                   22029702.5554   22029694.0584
        47.9004         38.5004
 131625012.9164  102564959.2504                   25047421.1834   25047409.4344
        38.5004         35.0004
 14 10 11 15 40 30.0000000  0 11G01G02G04G06G10G12G17G20G24G28G32
 128792080.9984  100357467.1674                   24508343.9084   24508327.6774
        39.9004         37.0004
 124357252.1484   96901790.1744                   23664399.1044   23664389.6154
        46.4004         40.7004
 127399792.3834   99272576.3184                   24243397.1144   24243387.0384
        43.5004         35.3004
 110328110.9764   85969983.5354                   20994743.7784   20994731.0964
        53.7004         47.8004
 133504631.8774  104029597.8204                   25405105.4114   25405086.2584
        38.3004         35.6004
 125621420.7194   97886831.6434                   23904973.6194   23904958.7174
        38.5004         41.0004
 109500564.5604   85325128.1704                   20837273.0034   20837264.1584
        54.9004         49.1004
 120026573.4734   93527239.7564                   22840298.0544   22840287.9134
        47.1004         39.5004
 119057884.1574   92772387.0724                   22655974.0364   22655962.8694
        47.2004         42.6004
 115836367.5784   90262109.6474                   22042942.6144   22042932.2834
        46.7004         37.6004
 131677901.3894  102606171.1044                   25057487.5684   25057472.2154
        37.7004         34.4004
 14 10 11 15 41  0.0000000  0 11G01G02G04G06G10G12G17G20G24G28G32
 128898973.3784  100440759.8384                   24528684.2024   24528665.7614
        37.9004         38.9004
 124260224.3094   96826184.1964                   23645935.6994   23645925.2694
        46.6004         40.9004
 127510124.3574   99358549.1834                   24264393.6234   24264381.9024
        42.0004         34.8004
 110263816.5234   85919883.9764                   20982509.0914   20982496.0554
        53.1004         48.2004
 133395112.1374  103944258.0384                   25384262.2174   25384243.2544
        37.6004         36.8004
 125519762.7054   97807617.5914                   23885628.2514   23885615.3174
        41.7004         40.9004
 109528330.8194   85346764.1774                   20842556.9344   20842547.2134
        54.1004         49.2004
 120020581.6294   93522570.8094                   22839157.6484   22839147.5684
        47.0004         39.8004
 119040631.9344   92758943.7244                   22652690.5314   22652680.2064
        46.9004         42.3004
 115906264.1424   90316574.4274                   22056242.7204   22056233.1354
        44.4004         36.6004
 131731274.4194  102647760.5434                   25067640.7304   25067626.6074
        37.0004         37.8004
 14 10 11 15 41 30.0000000  0 11G01G02G04G06G10G12G17G20G24G28G32
 129005978.1614  100524140.0934                   24549047.0404   24549030.2614
        39.8004         36.8004
 124163359.0644   96750704.9014                   23627502.7054   23627490.8964
        45.9004         41.9004
 127620590.9764   99444626.9294                   24285414.1664   24285403.2914
        41.5004         34.9004
 110199980.7434   85870141.8264                   20970361.3944   20970348.8964
        53.5004         48.3004
 133285465.2194  103858819.2414                   25363394.5814   25363377.2234
        34.3004         37.1004
 125418193.5424   97728472.7254                   23866299.4484   23866290.4284
        44.0004         39.7004
 109556350.2644   85368597.4914                   20847888.9114   20847879.6334
        54.6004         49.3004
 120015170.3774   93518354.2764                   22838129.0624   22838117.5984
        47.2004         39.9004
 119023965.1374   92745956.5674                   22649518.6324   22649506.9644
        46.6004         42.5004
 115976487.6634   90371293.9514                   22069606.8984   22069596.7944
        42.9004         37.8004
 131785130.1284  102689726.1014                   25077887.8194   25077875.5624
        36.8004         37.3004
 14 10 11 15 42  0.0000000  0 11G01G02G04G06G10G12G17G20G24G28G32
 129113092.7144  100607605.8824                   24569428.7064   24569413.9784
        39.3004         37.7004
 124066657.9084   96675353.4484                   23609100.2974   23609089.1954
        45.8004         41.0004
 127731189.3974   99530807.4204                   24306463.1584   24306449.6044
        41.3004         35.7004
 110136604.5784   85820757.8194                   20958301.3614   20958288.0944
        53.5004         48.2004
 133175693.7554  103773283.1664                   25342506.5884   25342492.0144
        38.6004         33.3004
 125316714.3894   97649398.0044                   23846992.6624   23846975.4814
        40.3004         41.1004
 109584622.3624   85390627.6704                   20853268.6904   20853260.0164
        55.0004         48.7004
 120010339.9954   93514590.3704                   22837208.8924   22837198.9304
        47.3004         38.8004
 119007883.9304   92733425.7124                   22646458.1934   22646448.2974
        47.7004         41.4004
 116047037.2204   90426267.4854                   22083031.7054   22083020.3224
        41.9004         38.0004
 131839466.5674  102732066.1994                   25088229.6804   25088213.9064
        35.6004         35.6004
 14 10 11 15 42 30.0000000  0 11G01G02G04G06G10G12G17G20G24G28G32
 129220315.1934  100691155.7524                   24589833.6834   24589818.4404
        40.1004         38.7004
 123970122.8734   96600131.4574                   23590730.4084   23590720.5804
        46.5004         41.1004
 127841917.6054   99617089.0334                   24327533.3794   24327519.5114
        40.1004         37.1004
 110073689.8404   85771733.3704                   20946329.2374   20946316.4664
        53.9004         49.1004
 133065800.6694  103687652.4874                   25321596.7254   25321579.8824
        35.5004         35.2004
 125215327.6784   97570395.3844                   23827697.8324   23827684.6064
        41.9004         40.5004
 109613147.0144   85412854.6354                   20858696.5434   20858687.3194
        54.4004         49.3004
 120006091.5284   93511279.9144                   22836399.5674   22836390.8904
        47.6004         39.3004
 118992389.1114   92721351.7914                   22643509.1974   22643497.7584
        46.6004         42.6004
 116117912.6534   90481494.9714                   22096519.0854   22096508.3144
        43.1004         39.5004
 131894282.4314  102774779.8724                   25098661.6294   25098647.5264
        37.7004         35.8004
 14 10 11 15 43  0.0000000  0 11G01G02G04G06G10G12G17G20G24G28G32
 129327642.8954  100774787.6324                   24610256.8244   24610242.6094
        40.3004         36.9004
 123873755.1954   96525039.8814                   23572392.6984   23572381.1934
        45.7004         42.4004
 127952772.6684   99703469.4944                   24348625.8914   24348614.3024
        40.8004         35.6004
 110011237.3464   85723069.1164                   20934445.1374   20934432.3114
        53.9004         49.1004
 132955788.1804  103601928.5574                   25300656.9844   25300642.7454
        39.1004         33.3004
 125114035.1074   97491466.0574                   23808421.5154   23808410.8854
        44.4004         41.7004
 109641923.4154   85435277.7764                   20864172.2254   20864163.5834
        54.5004         48.9004
 120002425.1774   93508423.0394                   22835702.4694   22835692.1504
        47.3004         39.9004
 118977480.5954   92709734.7334                   22640672.0384   22640662.3134
        46.9004         42.1004
 116189112.6774   90536975.3854                   22110068.7304   22110057.2394
        44.0004         39.8004
 131949575.5534  102817865.4574                   25109183.0794   25109171.6064
        39.0004         33.5004
 14 10 11 15 43 30.0000000  0 11G01G02G04G06G10G12G17G20G24G28G32
 129435073.7474  100858499.8954                   24630700.0644   24630686.3854
        40.3004         36.7004
 123777556.4624   96450079.9574                   23554086.3454   23554076.4904
        46.4004         40.8004
 128063752.5014   99789947.1864                   24369747.2834   24369731.8884
        39.3004         36.8004
 109949248.6054   85674766.2224                   20922648.5794   20922636.2404
        54.3004         48.9004
 132845659.2954  103516113.8714                   25279706.7134   25279686.6354
        37.0004         34.4004
 125012838.2844   97412611.3444                   23789162.8114   23789153.8614
        44.7004         39.7004
 109670951.0764   85457896.6884                   20869695.9714   20869687.8714
        55.1004         48.9004
 119999341.9254   93506020.5194                   22835116.4954   22835106.9684
        48.4004         39.2004
 118963158.8764   92698574.9024                   22637946.5944   22637934.8284
        46.7004         42.3004
 116260636.9384   90592708.4624                   22123679.3184   22123668.7464
        45.1004         38.0004
 132005344.5264  102861321.8084                   25119795.8784   25119784.9784
        40.3004         32.7004
 14 10 11 15 44  0.0000000  0 11G01G02G04G06G10G12G17G20G24G28G32
 129542605.5394  100942290.7704                   24651164.4394   24651150.0064
        40.5004         36.4004
 123681528.0024   96375252.7034                   23535812.5794   23535802.6894
        46.2004         40.5004
 128174854.6224   99876520.1534                   24390887.3474   24390874.9804
        40.3004         36.0004
 109887724.8724   85626825.6764                   20910941.4254   20910928.5294
        54.1004         48.6004
 132735416.5724  103430210.5784                   25258725.1214   25258709.5034
        40.2004         34.1004
 124911739.5904   97333833.1104                   23769926.6744   23769916.4454
        44.2004         39.3004
 109700229.7864   85480711.2414                   20875267.8954   20875258.9224
        54.7004         48.6004
 119996842.3634   93504072.8244                   22834640.0154   22834630.8644
        47.9004         38.8004
 118949424.4114   92687872.6844                   22635333.3184   22635322.1094
        46.6004         42.0004
 116332484.5564   90648693.5104                   22137351.1764   22137339.5054
        44.7004         38.3004
 132061587.6084  102905147.5444                   25130499.7434   25130487.0774
        38.6004         33.8004
 14 10 11 15 44 30.0000000  0 11G01G02G04G06G10G12G17G20G24G28G32
 129650235.6324  101026158.2724                   24671645.0784   24671631.6104
        41.0004         35.3004
 123585671.2114   96300559.2114                   23517571.6944   23517561.1564
        45.9004         41.2004
 128286076.4054   99963186.4024                   24412054.0704   24412039.7124
        38.8004         36.3004
 109826667.0554   85579248.1754                   20899322.7874   20899309.5204
        54.1004         49.1004
 132625062.5074  103344220.2474                   25237724.3154   25237707.6024
        38.3004         30.1004
 124810739.8354   97255131.9764                   23750707.1374   23750696.6654
        44.5004         39.7004
 109729758.7454   85503720.7954                   20880887.3594   20880878.3374
        54.8004         49.1004
 119994926.6724   93502580.0854                   22834276.2324   22834265.9614
        47.6004         39.6004
 118936277.3034   92677628.1314                   22632831.8204   22632820.6904
        46.9004         42.5004
 116404654.7684   90704929.9164                   22151085.0774   22151074.4784
        45.0004         38.2004
 132118302.6184  102949341.0394                   25141291.5574   25141276.8094
        38.7004         35.6004
 14 10 11 15 45  0.0000000  0 11G01G02G04G06G10G12G17G20G24G28G32
 129757962.1434  101110100.9124                   24692146.0224   24692129.6794
        40.0004         37.9004
 123489988.0494   96226001.0284                   23499363.6714   23499352.6754
        46.5004         40.8004
 128397415.5594  100049944.0664                   24433239.8404   24433228.4284
        40.6004         33.9004
 109766076.7464   85532034.9674                   20887792.6454   20887779.3494
        53.6004         49.1004
 132514599.7004  103258145.2384                   25216703.6904   25216686.0234
        37.7004         34.7004
 124709842.6244   97176510.7374                   23731505.8434   23731495.9004
        45.1004         40.6004
 109759537.6504   85526925.1014                   20886554.3704   20886544.7574
        54.3004         49.2004
 119993595.8854   93501543.1124                   22834021.9414   22834012.1484
        46.9004         39.6004
 118923718.0324   92667841.6504                   22630442.5634   22630430.8254
        46.7004         42.8004
 116477147.0484   90761417.2794                   22164879.4434   22164869.4234
        43.2004         37.0004
 132175488.2954  102993901.2774                   25152171.4514   25152161.3744
        39.2004         34.5004
 14 10 11 15 45 30.0000000  0 11G01G02G04G06G10G12G17G20G24G28G32
 129865782.3204  101194116.5554                   24712663.1004   24712650.0734
        41.3004         35.4004
 123394479.7644   96151579.0694                   23481189.2564   23481178.9214
        46.8004         40.2004
 128508869.3434  100136791.1084                   24454450.8544   24454434.3184
        38.2004         35.5004
 109705954.7074   85485186.6574                   20876352.1654   20876338.2014
        53.5004         49.0004
 132404030.6994  103171987.4604                   25195662.6074   25195645.3044
        35.7004         33.7004
 124609049.2044   97097970.4074                   23712325.9104   23712314.8374
        44.8004         40.9004
 109789565.8344   85550323.6494                   20892268.2314   20892259.1484
        54.6004         49.0004
 119992849.8784   93500961.8144                   22833881.0544   22833871.4744
        47.5004         39.8004
 118911746.7474   92658513.3044                   22628165.5454   22628152.8654
        46.9004         43.3004
 116549960.3304   90818154.7624                   22178735.9794   22178725.4124
        41.6004         36.9004
 132233142.5394  103038826.5574                   25163143.1094   25163131.6354
        39.5004         34.6004
 14 10 11 15 46  0.0000000  0 11G01G02G04G06G10G12G17G20G24G28G32
 129973694.6774  101278204.0004                   24733198.6874   24733183.6404
        40.6004         37.5004
 123299148.2914   96077294.8964                   23463049.0394   23463036.9214
        45.5004         41.0004
 128620436.1874  100223726.1714                   24475679.7934   24475665.1534
        38.3004         36.8004
 109646302.7644   85438704.6454                   20865000.6194   20864987.3594
        54.1004         49.0004
 132293359.1664  103085749.6964                   25174605.8914   25174587.0444
        38.6004         31.8004
 124508361.8144   97019512.6494                   23693166.1414   23693155.6934
        44.5004         39.9004
 109819843.6504   85573916.7064                   20898030.0324   20898021.4594
        54.8004         48.9004
 119992689.9044   93500837.1504                   22833851.7314   22833840.2934
        46.9004         40.7004
 118900363.6874   92649643.3414                   22625999.5804   22625988.2154
        47.7004         43.5004
 116623094.4524   90875142.2134                   22192654.8354   22192643.0484
        42.2004         35.6004
 132291263.8954  103084115.8924                   25174203.9724   25174192.1634
        39.4004         31.8004
 14 10 11 15 46 30.0000000  0 11G01G02G04G06G10G12G17G20G24G28G32
 130081696.5914  101362361.2384                   24753750.7294   24753735.5954
        39.9004         37.8004
 123203995.0864   96003149.6184                   23444941.0894   23444930.4134
        46.0004         41.3004
 128732113.0764  100310746.9994                   24496932.7774   24496919.5054
        39.1004         35.5004
 109587121.7494   85392589.5864                   20853739.2904   20853725.3574
        54.0004         49.4004
 132182587.3364  102999433.7564                   25153525.4784   25153506.8374
        36.3004         34.5004
 124407782.3504   96941139.0474                   23674026.9174   23674016.1504
        44.7004         40.2004
 109850370.1864   85597703.5974                   20903838.7524   20903830.2824
        54.7004         48.9004
 119993115.8094   93501169.0254                   22833932.8134   22833921.3874
        46.7004         40.6004
 118889568.9074   92641231.7554                   22623945.3034   22623932.6214
        46.5004         44.1004
 116696548.4164   90932378.9904                   22206629.7844   22206620.7154
        41.2004         35.6004
 132349850.3444  103129767.6414                   25185349.7004   25185341.5664
        38.6004         32.8004
 14 10 11 15 47  0.0000000  0 11G01G02G04G06G10G12G17G20G24G28G32
 130189785.8504  101446586.5054                   24774317.9374   24774301.8154
        38.3004         39.0004
 123109021.3804   95929144.2134                   23426867.8994   23426856.8784
        45.3004         41.0004
 128843897.7314  100397851.8544                   24518203.9714   24518192.7224
        40.0004         34.6004
 109528412.8004   85346842.3804                   20842567.3154   20842553.7194
        54.6004         49.7004
 132071717.5384  102913041.5254                   25132430.4364   25132410.9934
        37.3004         34.4004
 124307312.4874   96862850.8004                   23654908.3524   23654898.7424
        47.1004         40.8004
 109881144.8104   85621683.8204                   20909695.4454   20909686.0054
        54.6004         49.1004
 119994128.3914   93501958.0414                   22834124.7014   22834112.2494
        45.9004         41.4004
 118879362.4724   92633278.6594                   22622002.7594   22621989.5114
        46.2004         44.1004
 116770321.5274   90989864.3624                   22220670.5854   22220660.6634
        42.5004         34.8004
 132408899.9644  103175780.3174                   25196589.1144   25196578.9424
        39.4004         32.5004
 14 10 11 15 47 30.0000000  0 11G01G02G04G06G10G12G17G20G24G28G32
 130297960.1444  101530878.0134                   24794903.7114   24794887.7644
        39.0004         36.7004
 123014228.7014   95855279.8814                   23408829.2804   23408820.2474
        46.6004         40.5004
 128955787.7564  100485038.7414                   24539494.7584   24539480.4354
        38.5004         36.4004
 109470177.0094   85301463.8434                   20831484.1564   20831471.8864
        54.6004         49.0004
 131960752.8184  102826575.2294                   25111311.1734   25111294.0434
        36.6004         35.9004
 124206954.5314   96784649.7854                   23635810.6394   23635800.1534
        45.8004         40.5004
 109912167.0024   85645856.9374                   20915598.8694   20915590.2084
        54.8004         48.8004
 119995727.6874   93503204.2304                   22834429.2024   22834417.2954
        45.9004         40.7004
 118869744.5744   92625784.1514                   22620172.9624   22620161.5624
        47.1004         43.5004
 116844412.4564   91047597.3984                   22234769.7454   22234760.6444
        43.6004         34.9004
 132468410.9974  103222152.5304                   25207913.6414   25207903.7714
        39.0004         33.6004
 14 10 11 15 48  0.0000000  0 11G01G02G04G06G10G12G17G20G24G28G32
 130406217.0124  101615233.9314                   24815505.4844   24815491.2584
        40.6004         36.7004
 122919618.3454   95781557.5874                   23390824.9904   23390816.1044
        46.5004         41.0004
 129067780.6184  100572305.8474                   24560806.9604   24560795.3314
        39.9004         34.6004
 109412415.2404   85256454.6864                   20820492.4244   20820480.0664
        54.4004         48.8004
 131849695.6444  102740037.0894                   25090179.8104   25090160.0804
        34.7004         35.7004
 124106709.4754   96706536.7334                   23616731.8164   23616722.4374
        43.5004         38.4004
 109943436.1564   85670222.4834                   20921549.1254   20921540.2734
        54.7004         48.7004
 119997913.6174   93504907.5454                   22834844.9934   22834833.2074
        46.2004         40.7004
 118860715.0804   92618748.1534                   22618454.7724   22618442.8964
        47.1004         44.0004
 116918820.5324   91105577.6304                   22248928.3784   22248919.4984
        42.7004         34.3004
 132528381.2924  103268882.6044                   25219326.4864   25219314.6294
        38.3004         33.4004
 14 10 11 15 48 30.0000000  0 11G01G02G04G06G10G12G17G20G24G28G32
 130514554.3544  101699652.5514                   24836120.2894   24836106.4794
        40.5004         37.1004
 122825192.0784   95707978.7054                   23372856.1524   23372847.0984
        47.0004         40.6004
 129179873.8654  100659651.1664                   24582137.7174   24582125.3184
        39.8004         34.8004
 109355128.7194   85211815.8494                   20809590.7904   20809579.2584
        54.6004         48.8004
 131738549.1954  102653429.2804                   25069030.1394   25069012.1034
        37.0004         35.6004
 124006580.8614   96628514.4194                   23597678.9634   23597669.6494
        45.6004         40.0004
 109974951.9424   85694780.2174                   20927545.8014   20927537.2424
        54.4004         48.7004
 120000687.1354   93507068.6784                   22835372.0724   22835360.0484
        45.7004         41.6004
 118852274.3414   92612170.9154                   22616849.4814   22616837.7634
        47.3004         44.2004
 116993545.1604   91163804.5014                   22263147.1874   22263140.3144
        42.0004         33.6004
 132588808.9854  103315969.0814                   25230826.1694   25230813.6154
        38.3004         34.4004
 14 10 11 15 49  0.0000000  0 11G01G02G04G06G10G12G17G20G24G28G32
 130622970.1544  101784132.2944                   24856752.7534   24856736.2304
        38.8004         38.3004
 122730951.4754   95634544.5144                   23354922.4204   23354912.6344
        45.2004         41.2004
 129292065.3984  100747072.9704                   24603487.9834   24603476.2444
        40.1004         37.3004
 109298318.6854   85167548.2984                   20798780.1784   20798767.9624
        54.6004         48.4004
 131627316.0984  102566753.9954                   25047861.3494   25047842.7604
        36.6004         36.0004
 123906569.9474   96550583.7874                   23578647.2894   23578639.6114
        46.8004         39.5004
 110006714.3144   85719530.1004                   20933589.8824   20933581.1764
        54.6004         48.6004
 120004048.6974   93509688.0374                   22836012.6264   22836000.5024
        46.5004         40.9004
 118844422.1164   92606052.2404                   22615356.1064   22615341.7404
        46.6004         45.2004
 117068585.3524   91222277.2834                   22277429.7304   22277416.7034
        39.2004         34.2004
 132649692.4234  103363410.6894                   25242409.9084   25242401.4314
        39.4004         33.7004
 14 10 11 15 49 30.0000000  0 11G01G02G04G06G10G12G17G20G24G28G32
 130731462.3864  101868671.5814                   24877396.6214   24877381.1804
        38.5004         39.0004
 122636897.8104   95561256.0084                   23337024.4634   23337014.8264
        46.2004         41.3004
 129404352.9594  100834569.6974                   24624854.8794   24624843.8524
        40.3004         35.0004
 109241986.3344   85123652.9724                   20788060.8374   20788049.2194
        55.2004         48.8004
 131515999.2184  102480013.5264                   25026678.3394   25026660.4614
        37.5004         35.3004
 123806679.2224   96472746.8304                   23559639.7414   23559630.0134
        44.5004         39.9004
 110038722.7684   85744471.7264                   20939681.0084   20939672.7204
        54.9004         48.4004
 120007998.4834   93512765.7494                   22836764.3124   22836751.4584
        45.8004         41.4004
 118837158.9484   92600392.5804                   22613974.3404   22613959.7694
        46.3004         45.3004
 117143940.6834   91280995.5754                   22291768.8504   22291755.3644
        39.3004         36.8004
 132711029.8084  103411206.0014                   25254082.7764   25254071.0244
        38.8004         35.0004
 14 10 11 15 50  0.0000000  0 11G01G02G04G06G10G12G17G20G24G28G32
 130840028.5694  101953268.5174                   24898057.1254   24898041.4944
        38.4004         38.2004
 122543032.5464   95488114.3034                   23319163.1424   23319153.4144
        46.4004         41.5004
 129516733.9964  100922139.2344                   24646240.6354   24646227.4204
        39.0004         36.7004
 109186132.4594   85080130.4924                   20777432.8264   20777420.1714
        54.8004         49.3004
 131404601.2684  102393209.9874                   25005479.4164   25005464.7834
        40.1004         34.6004
 123706910.1924   96395004.7544                   23540654.1014   23540644.0874
        44.9004         40.0004
 110070976.2764   85769604.3044                   20945818.9894   20945809.8214
        54.3004         48.9004
 120012536.5304   93516301.8494                   22837627.5584   22837616.4064
        46.4004         40.3004
 118830484.6924   92595191.8174                   22612704.1244   22612688.6984
        45.8004         45.8004
 117219610.0154   91339958.6704                   22306166.5664   22306157.5644
        42.1004         34.6004
 132772818.8524  103459353.2904                   25265841.8144   25265828.7234
        39.4004         35.8004
 14 10 11 15 50 30.0000000  0 11G01G02G04G06G10G12G17G20G24G28G32
 130948666.7314  102037921.5364                   24918730.6254   24918713.4144
        37.0004         38.6004
 122449357.5364   95415120.8184                   23301336.3254   23301328.0394
        46.6004         40.9004
 129629206.4794  101009780.0094                   24667645.4804   24667628.3814
        38.5004         38.3004
 109130758.2934   85036981.8084                   20766895.3104   20766883.0694
        54.8004         49.5004
 131293125.0544  102306345.4514                   24984267.0454   24984249.2764
        39.5004         35.2004
 123607264.7044   96317358.8914                   23521692.9784   23521681.1584
        44.5004         40.9004
 110103475.1184   85794928.0484                   20952003.7554   20951994.6614
        54.2004         49.1004
 120017663.0794   93520296.5024                   22838603.0224   22838590.8664
        45.6004         41.1004
 118824398.9474   92590449.6574                   22611545.7664   22611532.5424
        47.0004         45.3004
 117295592.8464   91399165.9614                   22320628.9984   22320615.4384
        41.9004         35.6004
 132835057.8044  103507851.1614                   25277685.3604   25277673.0064
        38.1004         34.6004
 14 10 11 15 51  0.0000000  0 11G01G02G04G06G10G12G17G20G24G28G32
 131057374.7034  102122628.9954                   24939415.1394   24939400.8224
        38.5004         37.5004
 122355874.0284   95342276.5554                   23283546.9144   23283538.9734
        47.2004         40.3004
 129741768.0584  101097490.2284                   24689064.3994   24689050.8344
        40.6004         35.1004
 109075864.8944   84994207.7444                   20756449.3284   20756436.4964
        55.0004         49.0004
 131181573.7064  102219422.5014                   24963040.2994   24963022.1254
        41.0004         34.2004
 123507745.7224   96239811.6134                   23502755.6234   23502744.0664
        45.8004         40.4004
 110136218.7294   85820442.5174                   20958234.7034   20958225.4204
        54.6004         48.6004
 120023378.5794   93524750.0674                   22839690.1434   22839678.1104
        45.6004         40.7004
 118818902.4484   92586166.6334                   22610500.2754   22610486.6964
        47.8004         44.7004
 117371888.2644   91458616.7674                   22335146.1574   22335135.0074
        44.7004         36.0004
 132897744.9054  103556698.2084                   25289615.7404   25289601.6674
        38.7004         34.5004
 14 10 11 15 51 30.0000000  0 11G01G02G04G06G10G12G17G20G24G28G32
 131166150.0514  102207388.9564                   24960114.7544   24960097.9824
        37.1004         38.3004
 122262583.2014   95269582.4494                   23265794.7844   23265786.2254
        47.0004         40.6004
 129854416.0034  101185267.7954                   24710499.8734   24710486.1594
        39.8004         34.7004
 109021452.9254   84951808.8284                   20746094.6474   20746082.2894
        54.8004         49.0004
 131069949.5504  102132442.8134                   24941796.7254   24941779.4234
        39.4004         33.7004
 123408354.7094   96162364.0694                   23483842.5984   23483830.8144
        45.2004         40.6004
 110169206.2604   85846147.0474                   20964511.7004   20964502.9484
        54.5004         48.6004
 120029682.8594   93529662.4154                   22840890.8054   22840880.7144
        47.0004         39.9004
 118813994.2574   92582342.0074                   22609567.0334   22609552.5104
        47.2004         45.3004
 117448494.4544   91518309.8044                   22349722.9914   22349712.1084
        43.9004         36.9004
 132960877.7764  103605892.5974                   25301630.5024   25301617.9624
        40.2004         34.5004
 14 10 11 15 52  0.0000000  0 11G01G02G04G06G10G12G17G20G24G28G32
 131274990.7704  102292199.8244                   24980828.5904   24980811.0524
        37.9004         38.3004
 122169486.5884   95197039.7054                   23248078.8984   23248070.0664
        46.6004         40.9004
 129967148.0174  101273110.8624                   24731954.8114   24731939.6474
        40.0004         35.8004
 108967523.5564   84909785.9584                   20735831.7984   20735820.0284
        54.8004         48.6004
 130958255.3914  102045408.6584                   24920542.7224   24920525.2444
        39.8004         34.1004
 123309093.5954   96085017.7824                   23464952.1524   23464943.1324
        45.6004         40.0004
 110202437.5434   85872041.5244                   20970835.0244   20970826.7274
        54.3004         48.6004
 120036576.2564   93535033.8534                   22842202.0234   22842191.8244
        46.3004         40.5004
 118809674.5594   92578975.9444                   22608745.2634   22608728.5224
        46.0004         46.1004
 117525411.4494   91578245.0094                   22364360.1734   22364349.0984
        42.7004         38.0004
 133024454.5284  103655432.9094                   25313728.9404   25313716.1074
        40.1004         33.7004
 14 10 11 15 52 30.0000000  0 11G01G02G04G06G10G12G17G20G24G28G32
 131383894.8304  102377060.0884                   25001550.4124   25001535.6164
        38.1004         36.3004
 122076586.0634   95124649.7474                   23230400.6754   23230392.0094
        47.1004         39.7004
 130079962.4254  101361018.0854                   24753419.0494   24753405.9594
        39.2004         34.3004
 108914077.8494   84868139.9694                   20725661.8164   20725649.2284
        55.1004         48.1004
 130846494.4494  101958322.4764                   24899275.1904   24899260.0884
        41.3004         33.0004
 123209964.7844   96007774.5164                   23446088.0584   23446079.4834
        46.8004         38.7004
 110235912.2354   85898125.6744                   20977205.2934   20977196.0624
        54.4004         47.9004
 120044058.9404   93540864.4454                   22843627.8754   22843614.6934
        46.2004         40.0004
 118805942.9834   92576068.1744                   22608034.5904   22608019.2894
        46.8004         45.0004
 117602638.2174   91638421.6004                   22379057.9364   22379045.3774
        42.0004         36.6004
 133088473.3544  103705317.7194                   25325909.5714   25325895.7034
        38.9004         35.3004
 14 10 11 15 53  0.0000000  0 11G01G02G04G06G10G12G17G20G24G28G32
 131492859.9874  102461967.9304                   25022285.0664   25022270.1984
        37.2004         37.4004
 121983882.9064   95052413.5394                   23212758.9594   23212751.7234
        46.7004         39.9004
 130192856.3634  101448987.3464                   24774903.9754   24774890.5294
        40.4004         35.3004
 108861116.6064   84826871.4864                   20715583.0094   20715571.0374
        55.2004         48.6004
 130734669.3104  101871186.3674                   24877993.4264   24877979.2504
        41.5004         33.9004
 123110970.2494   95930635.8914                   23427249.7324   23427241.8004
        46.9004         38.6004
 110269629.8134   85924399.0854                   20983621.8644   20983613.0504
        54.7004         48.2004
 120052130.8714   93547154.2274                   22845162.6704   22845150.1754
        45.8004         40.5004
 118802799.9644   92573619.0194                   22607435.3844   22607422.6124
        48.0004         44.3004
 117680173.8224   91698838.8774                   22393809.1884   22393800.7014
        41.6004         36.6004
 133152932.1364  103755545.3284                   25338173.7384   25338161.8354
        39.3004         35.0004
 14 10 11 15 53 30.0000000  0 11G01G02G04G06G10G12G17G20G24G28G32
 131601884.3594  102546921.9144                   25043034.6604   25043017.0734
        36.7004         36.1004
 121891378.4524   94980332.2204                   23195156.4574   23195147.0844
        45.7004         41.0004
 130305828.0164  101537017.1384                   24796401.4574   24796386.5314
        39.7004         37.0004
 108808641.0504   84785981.4594                   20705597.6254   20705585.4934
        55.0004         49.0004
 130622782.9944  101784002.5974                   24856702.8714   24856685.5724
        39.8004         35.5004
 123012112.1614   95853603.6204                   23408438.8804   23408428.8754
        45.7004         40.2004
 110303589.9494   85950861.5074                   20990084.6514   20990075.1144
        54.1004         48.6004
 120060792.8034   93553903.7194                   22846810.6904   22846799.5424
        46.1004         40.6004
 118800244.7304   92571627.8904                   22606949.6434   22606936.3114
        47.1004         44.9004
 117758017.5744   91759496.2584                   22408623.1324   22408612.3334
        41.5004         36.7004
 133217828.9894  103806114.3364                   25350524.1214   25350510.4504
        38.8004         34.3004
 14 10 11 15 54  0.0000000  0 11G01G02G04G06G10G12G17G20G24G28G32
 131710965.4244  102631920.1104                   25063790.1724   25063775.5294
        38.0004         36.8004
 121799074.1454   94908406.8454                   23177592.3224   23177584.4024
        46.5004         40.4004
 130418874.7044  101625105.3964                   24817915.0104   24817901.3934
        40.5004         34.7004
 108756651.6924   84745470.2944                   20695704.7264   20695692.4514
        55.1004         48.9004
 130510838.0324  101696773.1214                   24835400.9054   24835384.6194
        41.2004         35.7004
 122913392.6254   95776679.3304                   23389653.4994   23389643.0424
        46.0004         40.9004
 110337792.0624   85977512.4764                   20996593.0224   20996583.6084
        54.0004         48.3004
 120070044.1134   93561112.4824                   22848570.3684   22848561.2814
        46.9004         39.0004
 118798277.2424   92570094.7294                   22606574.9004   22606561.0434
        46.9004         44.8004
 117836167.9904   91820392.5564                   22423496.5294   22423485.9764
        43.8004         34.2004
 133283161.4964  103857022.8354                   25362958.4704   25362945.6444
        40.3004         32.5004
 14 10 11 15 54 30.0000000  0 11G01G02G04G06G10G12G17G20G24G28G32
 131820101.0794  102716960.8644                   25084556.7684   25084543.4654
        37.3004         35.3004
 121706971.1884   94836638.3434                   23160066.1574   23160055.9974
        45.7004         41.7004
 130531994.1894  101713250.4444                   24839437.4924   24839427.0594
        39.9004         33.6004
 108705149.3904   84705338.6544                   20685903.7604   20685891.1864
        54.8004         48.6004
 130398836.8274  101609499.8224                   24814088.3224   24814071.4774
        41.5004         35.3004
 122814813.1064   95699864.0854                   23370893.0104   23370885.6584
        46.8004         39.7004
 110372235.5114   86004351.5054                   21003147.2814   21003137.6354
        53.8004         48.0004
 120079884.5094   93568780.2914                   22850442.8044   22850432.9524
        46.2004         38.7004
 118796897.2214   92569019.3284                   22606312.9024   22606298.4674
        47.1004         44.7004
 117914624.2464   91881527.1624                   22438425.1514   22438413.9354
        43.4004         34.0004
 133348927.6094  103908269.1584                   25375471.0544   25375463.2734
        40.3004         32.3004
 14 10 11 15 55  0.0000000  0 11G01G02G04G06G10G12G17G20G24G28G32
 131929289.3604  102802042.6264                   25105333.8414   25105321.3124
        38.2004         36.2004
 121615071.2394   94765028.0564                   23142577.1604   23142566.4144
        45.0004         41.5004
 130645184.1424  101801450.4214                   24860979.8294   24860966.3694
        39.3004         32.9004
 108654135.2184   84665587.3694                   20676195.9704   20676183.7344
        55.0004         48.6004
 130286782.6164  101522185.2114                   24792763.3034   24792746.5194
        41.2004         35.1004
 122716376.1124   95623159.9424                   23352159.9974   23352151.2384
        44.7004         39.6004
 110406920.0314   86031378.3624                   21009747.3144   21009738.4894
        54.4004         47.6004
 120090314.5544   93576907.5584                   22852428.3954   22852418.7434
        46.5004         38.5004
 118796104.5614   92568401.6024                   22606162.5214   22606149.1354
        47.6004         44.6004
 117993385.5324   91942899.4574                   22453412.8294   22453403.6984
        45.9004         34.6004
 133415125.4224  103959851.8544                   25388067.9344   25388057.4414
        37.9004         32.9004
 14 10 11 15 55 30.0000000  0 11G01G02G04G06G10G12G17G20G24G28G32
 132038528.1144  102887163.7184                   25126124.2004   25126109.4314
        38.4004         37.2004
 121523375.6244   94693576.9874                   23125128.2894   23125119.0934
        46.7004         41.4004
 130758442.5664  101889703.7024                   24882530.1454   24882518.7834
        40.5004         34.8004
 108603609.9424   84626217.0484                   20666581.4484   20666568.8584
        54.8004         48.8004
 130174678.0874  101434831.3414                   24771429.3314   24771415.0184
        43.2004         33.7004
 122618083.8734   95546568.5514                   23333456.8654   23333446.6664
        45.0004         40.0004
 110441845.1254   86058592.6924                   21016392.9324   21016384.4084
        54.2004         47.5004
 120101334.0964   93585494.1734                   22854525.5014   22854515.7704
        45.7004         37.9004
 118795899.0824   92568241.4454                   22606122.4864   22606110.4644
        47.8004         44.0004
 118072450.8154   92004508.6394                   22468458.2234   22468448.5614
        46.6004         36.1004
 133481752.7274  104011769.2924                   25400747.3084   25400734.0724
        36.1004         35.2004
 14 10 11 15 56  0.0000000  0 11G01G02G04G06G10G12G17G20G24G28G32
 132147815.5164  102972322.7054                   25146919.6424   25146903.0214
        36.2004         37.6004
 121431886.0574   94622286.4854                   23107718.9174   23107709.6474
        46.6004         41.8004
 130871767.2324  101978008.6534                   24904094.9384   24904083.2144
        39.9004         34.8004
 108553574.6774   84587228.5484                   20657060.0584   20657048.1404
        55.1004         48.8004
 130062526.7044  101347440.8784                   24750088.5714   24750072.8544
        42.6004         34.3004
 122519938.7624   95470091.8344                   23314781.4004   23314770.0884
        45.6004         41.3004
 110477010.8444   86085994.5264                   21023084.8534   21023076.6624
        54.1004         47.5004
 120112943.4314   93594540.4124                   22856734.0404   22856725.5304
        45.9004         37.7004
 118796280.2264   92568538.4014                   22606194.6534   22606183.1814
        47.3004         44.0004
 118151819.4864   92066354.2814                   22483561.3374   22483552.4304
        47.3004         37.5004
 133548807.6194  104064019.9324                   25413504.7234   25413494.1334
        36.0004         33.0004
 14 10 11 15 56 30.0000000  0 11G01G02G04G06G10G12G17G20G24G28G32
 132257149.4004  103057517.9404                   25167725.3084   25167709.3604
        37.2004         37.2004
 121340603.5304   94551157.2854                   23090347.5984   23090338.2174
        46.2004         42.5004
 130985155.9004  102066363.4494                   24925674.0404   24925659.4594
        39.7004         36.0004
 108504030.0924   84548622.4084                   20647631.8084   20647620.1364
        54.9004         48.7004
 129950330.8924  101260015.8324                   24728739.7964   24728720.7634
        40.6004         34.3004
 122421942.9584   95393731.4874                   23296133.4804   23296121.0004
        44.3004         41.9004
 110512416.4264   86113583.2684                   21029822.6304   21029813.7384
        53.8004         47.6004
 120125141.7954   93604045.6204                   22859053.9074   22859044.2614
        44.3004         38.1004
 118797247.9684   92569292.4364                   22606379.2864   22606365.0434
        45.9004         44.9004
 118231490.2554   92128435.2684                   22498722.3564   22498712.2914
        46.8004         38.4004
 133616287.9544  104116602.1034                   25426347.7794   25426336.9404
        37.2004         33.7004
 14 10 11 15 57  0.0000000  0 11G01G02G04G06G10G12G17G20G24G28G32
 132366527.9054  103142748.0094                   25188540.4564   25188524.2404
        37.3004         36.3004
 121249529.6934   94480190.7154                   23073017.3874   23073006.8754
        45.9004         42.9004
 131098606.7844  102154766.7534                   24947265.0044   24947248.7224
        39.5004         37.3004
 108454977.2954   84510399.4684                   20638297.5824   20638285.5374
        55.0004         49.0004
 129838094.1144  101172558.8064                   24707378.5934   24707362.8504
        39.8004         35.3004
 122324098.5764   95317489.1024                   23277513.9694   23277504.3184
        45.2004         40.4004
 110548061.8184   86141358.8624                   21036605.3734   21036597.3234
        53.9004         47.5004
 120137929.8074   93614010.3024                   22861488.3554   22861476.6564
        43.9004         38.8004
 118798802.3784   92570503.5944                   22606675.8064   22606661.7394
        46.4004         45.6004
 118311462.6154   92190751.2404                   22513941.5924   22513931.4104
        47.6004         38.8004
 133684191.7604  104169514.1434                   25439267.9534   25439258.4974
        37.7004         33.4004
 14 10 11 15 57 30.0000000  0 11G01G02G04G06G10G12G17G20G24G28G32
 132475948.6984  103228010.9694                   25209360.6364   25209347.2594
        37.6004         33.9004
 121158665.8844   94409387.7904                   23055726.1984   23055717.4614
        46.9004         42.9004
 131212117.0854  102243216.3894                   24968865.2644   24968849.8294
        40.0004         34.0004
 108406416.7834   84472560.1324                   20629057.0114   20629045.0234
        55.6004         48.8004
 129725818.8934  101085071.8704                   24686015.0524   24686000.4264
        41.4004         33.0004
 122226407.6374   95241366.2504                   23258924.2074   23258914.9884
        45.6004         39.3004
 110583946.2644   86169320.7354                   21043433.7644   21043425.9114
        54.5004         46.8004
 120151307.0614   93624434.1224                   22864032.3074   22864022.2414
        44.4004         37.6004
 118800942.2344   92572170.9534                   22607083.5654   22607069.1134
        47.3004         45.6004
 118391734.9554   92253300.9724                   22529216.1594   22529206.5924
        47.3004         38.6004
 133752516.6154  104222754.3294                   25452270.6874   25452258.6174
        37.2004         34.7004
 14 10 11 15 58  0.0000000  0 11G01G02G04G06G10G12G17G20G24G28G32
 132585409.8814  103313305.4944                   25230192.3734   25230176.5624
        37.0004         35.9004
 121068013.5824   94338749.6974                   23038475.7814   23038465.9694
        46.1004         43.0004
 131325684.8034  102331710.7814                   24990474.7944   24990459.5464
        38.6004         34.1004
 108358349.3944   84435105.0444                   20619910.2724   20619897.1894
        55.1004         49.3004
 129613508.4144  100997557.4284                   24664642.2994   24664626.4344
        40.0004         34.6004
 122128872.1994   95165364.6424                   23240363.5014   23240352.9944
        46.2004         41.0004
 110620069.3514   86197468.5624                   21050307.6294   21050299.3064
        54.2004         47.1004
 120165273.3414   93635316.9264                   22866689.7564   22866681.5824
        45.3004         37.7004
 118803667.2724   92574294.2924                   22607602.2414   22607589.4804
        48.3004         45.1004
 118472306.3724   92316083.7724                   22544548.2734   22544538.0734
        46.0004         39.9004
 133821260.6654  104276321.2154                   25465353.5584   25465340.0984
        36.3004         31.2004
 14 10 11 15 58 30.0000000  0 11G01G02G04G06G10G12G17G20G24G28G32
 132694909.2714  103398629.7444                   25251028.2874   25251013.7834
        36.6004         35.7004
 120977573.9654   94268277.3284                   23021265.8794   23021256.2144
        46.1004         41.8004
 131439307.8494  102420248.3094                   25012096.1944   25012082.5154
        38.3004         34.9004
 108310775.8024   84398034.7444                   20610857.0544   20610844.7914
        55.5004         49.6004
 129501165.3144  100910017.5214                   24643261.4234   24643246.8694
        39.3004         34.1004
 122031494.4504   95089485.8394                   23221833.2224   23221823.3544
        45.3004         41.3004
 110656430.5814   86225801.9604                   21057227.3254   21057219.2044
        54.3004         47.1004
 120179828.3464   93646658.4764                   22869461.5204   22869451.6034
        45.7004         37.9004
 118806977.0114   92576873.2424                   22608231.1184   22608216.7184
        46.3004         45.4004
 118553175.9464   92379098.9214                   22559937.7154   22559926.7574
        45.4004         39.3004
 133890421.3814  104330212.7024                   25478514.8884   25478498.3894
        36.5004         34.8004
 14 10 11 15 59  0.0000000  0 11G01G02G04G06G10G12G17G20G24G28G32
 132804444.9734  103483982.3004                   25271870.6254   25271858.7034
        38.0004         33.8004
 120887348.5744   94197971.8934                   23004096.8474   23004086.3484
        45.6004         43.4004
 131552983.9824  102508827.1854                   25033726.5634   25033714.0214
        38.9004         32.9004
 108263696.8404   84361349.8544                   20601898.5054   20601886.2384
        55.8004         49.6004
 129388792.6244  100822454.6044                   24621881.2824   24621864.3764
        40.4004         35.0004
 121934276.0184   95013731.2284                   23203332.9714   23203321.6184
        44.0004         40.8004
 110693029.8344   86254320.8194                   21064191.7424   21064183.2444
        54.1004         46.8004
 120194972.1074   93658458.8174                   22872344.8514   22872333.3844
        45.6004         38.3004
 118810871.1384   92579907.5524                   22608972.3014   22608958.5724
        46.7004         44.5004
 118634342.7984   92442345.6744                   22575383.3714   22575371.8114
        45.7004         39.1004
 133959996.8184  104384427.4344                   25491752.7384   25491743.4854
        38.0004         32.8004
 14 10 11 15 59 30.0000000  0 11G01G02G04G06G10G12G17G20G24G28G32
 132914015.1674  103569361.7894                   25292721.4794   25292708.0124
        38.0004         32.3004
 120797338.9514   94127834.6124                   22986969.0404   22986957.6024
        44.9004         43.7004
 131666711.2394  102597445.9614                   25055367.0604   25055356.9374
        38.6004         33.8004
 108217113.5224   84325051.1834                   20593034.3454   20593021.7224
        55.8004         50.1004
 129276393.7214  100734871.2744                   24600490.0564   24600476.5094
        41.3004         35.9004
 121837220.2404   94938103.3464                   23184864.1234   23184854.5424
        46.8004         40.6004
 110729867.0854   86283025.1194                   21071201.9384   21071193.7054
        54.2004         47.0004
 120210704.5534   93670717.8534                   22875338.3624   22875327.1504
        45.7004         38.5004
 118815349.8214   92583397.3774                   22609824.0024   22609811.5584
        47.3004         44.5004
 118715805.9404   92505823.3204                   22590885.6764   22590875.2004
        47.0004         38.0004
 134029985.0654  104438963.7494                   25505073.1574   25505062.8294
        37.8004         31.6004
 14 10 11 16  0  0.0000000  0 11G01G02G04G06G10G12G17G20G24G28G32
 133023617.7134  103654766.5294                   25313580.4074   25313566.5364
        38.5004         31.0004
 120707546.6214   94057866.6564                   22969881.4894   22969871.6474
        45.0004         42.0004
 131780487.4554  102686102.9254                   25077021.1654   25077007.1254
        38.6004         32.1004
 108171026.3264   84289139.1124                   20584264.0144   20584251.6564
        56.1004         49.8004
 129163971.0094  100647269.3504                   24579100.0794   24579082.7684
        41.8004         36.7004
 121740329.0704   94862603.7444                   23166427.1224   23166415.9334
        46.6004         41.6004
 110766941.6544   86311914.3374                   21078257.0364   21078248.1614
        54.1004         47.0004
 120227025.1414   93683435.1824                   22878443.7484   22878433.8294
        46.3004         37.8004
 118820411.8304   92587341.7684                   22610788.0154   22610774.7994
        47.8004         44.9004
 118797564.0654   92569530.8094                   22606443.1494   22606434.2284
        48.0004         36.5004
 134100383.6484  104493819.8674                   25518471.2224   25518456.3824
        37.5004         33.9004
