     2.11           OBSERVATION DATA    G (GPS)             RINEX VERSION / TYPE
teqc  2013Nov15     NGS Web User        20150421 18:50:38UTCPGM / RUN BY / DATE
Solaris 5.10|UltraSparc IIIi|cc -m64 SS12.1|=+|*Sparc       COMMENT
teqc  2012Jun6      NOAA/NOS/NGS/CORS   20121011 00:43:04UTCCOMMENT
Solaris x86 5.10|AMD64|cc SC5.8 -xarch=amd64|=+|=+          COMMENT
teqc  2012Jun6      NOAA/NOS/NGS/CORS   20121011 00:42:49UTCCOMMENT
     2.10           OBSERVATION DATA    G (GPS)             COMMENT
NSTB2RINEX 2.06     NOAA/NOS/NGS/CORS   20121011 00:42:27UTCCOMMENT
Forced Modulo Decimation to 30 seconds                      COMMENT
ZMP1                                                        MARKER NAME
Tom McHugh          Federal Aviation Administration         OBSERVER / AGENCY
7BC1                NOV WAASGII         2.003               REC # / TYPE / VERS
unknown             MPL_WAAS_2225NW NONE                    ANT # / TYPE
  -249977.5300 -4539298.5130  4458954.8020                  APPROX POSITION XYZ
        0.0000        0.0000        0.0000                  ANTENNA: DELTA H/E/N
     1     1                                                WAVELENGTH FACT L1/2
     7    L1    L2    P1    P2    C1    S1    S2            # / TYPES OF OBSERV
    30.0000                                                 INTERVAL
teqc windowed: start @ 2012 Oct 10 15:00:00.000             COMMENT
teqc windowed:  end  @ 2012 Oct 10 16:00:00.000             COMMENT
teqc edited: all GLONASS satellites excluded                COMMENT
  2012    10    10    15     0    0.0000000     GPS         TIME OF FIRST OBS
                                                            END OF HEADER
 12 10 10 15  0  0.0000000  0  9G01G07G08G11G15G17G19G26G28
 113319555.0314   88300974.5364                   21563996.4814   21563985.3284
        50.6004         46.9004
 117489803.4764   91550519.7314                   22357574.5604   22357567.4344
        49.2004         43.7004
 106166303.1454   82727004.5204                   20202783.9654   20202776.3224
        55.7004         47.8004
 112384614.5404   87572449.0414                   21386086.7384   21386079.7404
        52.2004         44.6004
 128282050.6184   99960049.4954                   24411271.4154   24411263.6644
        43.0004         38.2004
 116732504.9434   90960426.4884                   22213458.4284   22213452.4354
        51.7004         44.8004
 128063108.5384   99789440.7014                   24369609.9734   24369602.3874
        41.7004         37.3004
 119731911.8404   93297606.6694                   22784235.1194   22784225.6304
        47.3004         41.3004
 110670147.9064   86236506.2824                   21059832.8984   21059826.0964
        53.2004         47.5004
 12 10 10 15  0 30.0000000  0  9G01G07G08G11G15G17G19G26G28
 113290492.1394   88278328.1344                   21558466.2094   21558455.7594
        51.2004         46.7004
 117589925.5344   91628536.8624                   22376626.9224   22376620.6284
        50.1004         42.7004
 106196015.6034   82750157.0704                   20208438.0534   20208430.5614
        55.9004         47.8004
 112412805.7314   87594416.1944                   21391451.1674   21391444.7794
        52.8004         44.2004
 128263731.7114   99945774.9904                   24407785.8984   24407776.9214
        42.5004         38.6004
 116654129.5474   90899354.7714                   22198544.1464   22198536.6964
        50.9004         45.0004
 128170027.0854   99872753.7694                   24389955.5984   24389948.5534
        42.4004         38.4004
 119777045.5274   93332775.7484                   22792822.3524   22792815.2934
        47.7004         40.5004
 110637991.3204   86211449.2014                   21053713.2414   21053706.8294
        53.7004         47.0004
 12 10 10 15  1  0.0000000  0  9G01G07G08G11G15G17G19G26G28
 113262014.9154   88256138.0904                   21553047.2364   21553036.8274
        51.5004         46.9004
 117690351.6504   91706790.9034                   22395737.8764   22395730.3604
        50.3004         42.9004
 106226323.1474   82773773.3284                   20214205.8904   20214198.4704
        56.1004         48.0004
 112441605.7304   87616857.7634                   21396931.4784   21396925.3534
        52.7004         43.8004
 128245947.0554   99931916.8064                   24404401.9674   24404395.5154
        44.2004         38.5004
 116576047.7294   90838511.8254                   22183685.8244   22183677.6174
        50.3004         45.7004
 128277002.4794   99956111.1494                   24410313.8064   24410303.6994
        40.6004         40.3004
 119822753.4454   93368392.3064                   22801520.4184   22801513.7274
        48.1004         40.1004
 110606033.6914   86186547.1534                   21047631.9824   21047625.1954
        53.7004         46.9004
 12 10 10 15  1 30.0000000  0  9G01G07G08G11G15G17G19G26G28
 113234125.0354   88234405.7274                   21547739.9034   21547729.1454
        51.0004         47.4004
 117791079.8594   91785280.3474                   22414906.0004   22414899.1414
        49.6004         43.2004
 106257225.8054   82797853.3024                   20220086.4914   20220078.7144
        55.6004         48.2004
 112471013.9094   87639773.2284                   21402527.8584   21402520.5234
        51.5004         44.3004
 128228697.6644   99918475.7224                   24401119.8524   24401113.4964
        44.5004         38.6004
 116498260.4634   90777898.4084                   22168883.1304   22168875.0284
        50.2004         45.6004
 128384033.4794  100039511.8324                   24430679.0574   24430672.7104
        41.6004         38.9004
 119869033.6384   93404454.7784                   22810327.3744   22810319.0364
        47.0004         41.2004
 110574275.9464   86161800.8524                   21041588.4574   21041582.8454
        53.6004         46.7004
 12 10 10 15  2  0.0000000  0  9G01G07G08G11G15G17G19G26G28
 113206823.4174   88213131.7404                   21542544.7564   21542533.4024
        51.3004         47.3004
 117892107.9584   91864003.4944                   22434131.8814   22434122.2444
        48.2004         45.2004
 106288723.2614   82822396.7674                   20226080.3014   20226072.0894
        55.7004         48.4004
 112501029.0624   87663161.6604                   21408239.3794   21408231.8634
        51.7004         44.6004
 128211983.3944   99905451.6174                   24397939.2754   24397931.5754
        43.8004         40.0004
 116420768.8384   90717515.3294                   22154136.9484   22154129.4944
        50.8004         44.7004
 128491117.5964  100122953.9064                   24451056.5764   24451048.8594
        40.0004         36.6004
 119915883.5194   93440961.1674                   22819242.8784   22819233.9984
        47.1004         41.2004
 110542718.6124   86137210.7144                   21035583.6944   21035577.4404
        54.0004         47.2004
 12 10 10 15  2 30.0000000  0  9G01G07G08G11G15G17G19G26G28
 113180111.4294   88192317.2004                   21537460.9554   21537450.6404
        50.7004         47.2004
 117993433.8794   91942958.6844                   22453413.9984   22453404.3464
        48.7004         44.3004
 106320815.2594   82847403.5034                   20232186.8864   20232179.0564
        55.4004         48.4004
 112531649.8794   87687022.0454                   21414066.0924   21414058.8264
        51.6004         44.1004
 128195804.4704   99892844.6934                   24394862.4194   24394854.0874
        43.9004         40.1004
 116343573.5784   90657363.1974                   22139446.9874   22139439.2674
        50.1004         45.3004
 128598253.0264  100206436.0364                   24471444.3904   24471433.7184
        37.7004         40.7004
 119963300.6494   93477909.5494                   22828267.0194   22828256.9944
        46.8004         42.0004
 110511362.0754   86112777.0454                   21029617.1684   21029611.3844
        54.3004         46.9004
 12 10 10 15  3  0.0000000  0  9G01G07G08G11G15G17G19G26G28
 113153990.0734   88171962.8944                   21532490.9004   21532480.3844
        51.8004         47.5004
 118095055.1594   92022144.0254                   22472751.0964   22472743.1034
        49.4004         43.3004
 106353501.4324   82872873.2344                   20238406.9184   20238399.6204
        55.7004         48.0004
 112562875.0584   87711353.3594                   21420008.5444   21420000.7474
        51.0004         44.4004
 128180160.9124   99880654.9274                   24391886.2214   24391874.6664
        42.4004         41.2004
 116266675.6564   90597442.7544                   22124813.8084   22124806.4014
        50.5004         45.3004
 128705437.7134  100289956.4574                   24491838.5274   24491831.0384
        38.7004         37.9004
 120011282.6374   93515298.0814                   22837397.6694   22837388.5554
        47.5004         41.8004
 110480206.9444   86088500.3134                   21023688.8824   21023682.2554
        53.8004         47.3004
 12 10 10 15  3 30.0000000  0  9G01G07G08G11G15G17G19G26G28
 113128460.4284   88152069.6704                   21527632.0194   21527621.7584
        51.8004         47.0004
 118196969.4074   92101557.6704                   22492144.9384   22492137.5584
        49.6004         42.2004
 106386781.3494   82898805.6224                   20244740.3284   20244732.6294
        56.2004         48.0004
 112594703.9134   87736155.0604                   21426065.4394   21426057.4354
        50.9004         44.3004
 128165053.1524   99868882.6744                   24389010.2474   24389001.0974
        43.3004         39.6004
 116190076.4914   90537755.1054                   22110237.6784   22110229.0634
        50.3004         45.4004
 128812669.4364  100373513.6194                   24512246.0174   24512239.2004
        40.8004         38.0004
 120059826.9104   93553124.7694                   22846635.6134   22846625.7034
        47.7004         41.6004
 110449253.7184   86064380.9224                   21017798.7124   21017791.5634
        53.3004         47.2004
 12 10 10 15  4  0.0000000  0  9G01G07G08G11G15G17G19G26G28
 113103523.9284   88132638.6244                   21522887.1304   21522875.9644
        50.7004         47.6004
 118299175.0214   92181198.3334                   22511593.5424   22511586.0884
        49.8004         41.6004
 106420654.8604   82925200.5484                   20251185.9004   20251178.2754
        55.5004         47.9004
 112627135.0944   87761426.0944                   21432236.6544   21432229.0284
        51.6004         44.0004
 128150481.4824   99857528.1504                   24386238.2994   24386224.9804
        40.4004         41.9004
 116113776.4404   90478300.5334                   22095717.7804   22095710.9664
        50.4004         45.0004
 128919946.9034  100457106.3534                   24532657.8764   24532654.0594
        39.8004         35.8004
 120108931.3434   93591387.9454                   22855979.8774   22855971.1064
        47.9004         41.5004
 110418503.4184   86040419.6504                   21011946.8704   21011939.9884
        53.7004         46.7004
 12 10 10 15  4 30.0000000  0  9G01G07G08G11G15G17G19G26G28
 113079181.4654   88113670.4694                   21518254.9874   21518244.2354
        50.8004         47.5004
 118401669.4204   92261064.0364                   22531097.6864   22531089.9314
        49.3004         43.0004
 106455121.7184   82952057.8274                   20257744.5144   20257736.7404
        55.3004         47.8004
 112660167.1094   87787165.3264                   21438523.1724   21438515.5534
        51.6004         44.5004
 128136445.9174   99846591.2674                   24383565.6154   24383559.0634
        42.9004         38.8004
 116037776.4574   90419079.7914                   22081255.3834   22081248.3844
        50.4004         45.0004
 129027268.0774  100540733.2414                   24553080.5864   24553077.1944
        39.5004         37.0004
 120158593.2174   93630085.4874                   22865429.1804   22865421.3374
        47.9004         41.0004
 110387956.4244   86016616.8054                   21006133.8254   21006126.5354
        53.1004         47.7004
 12 10 10 15  5  0.0000000  0  9G01G07G08G11G15G17G19G26G28
 113055434.2194   88095166.1274                   21513736.0614   21513725.4724
        51.0004         47.6004
 118504450.3414   92341153.0004                   22550657.1594   22550648.8744
        49.8004         43.5004
 106490181.5594   82979377.1724                   20264416.5474   20264408.7784
        55.9004         48.2004
 112693798.9484   87813371.9544                   21444922.5024   21444915.6664
        52.0004         43.9004
 128122946.5104   99836072.2634                   24380998.6164   24380987.3054
        41.9004         40.9004
 115962077.8574   90360093.8844                   22066850.8224   22066843.5984
        50.9004         45.6004
 129134631.1124  100624392.5834                   24573512.8364   24573505.7084
        40.0004         38.8004
 120208810.1734   93669215.5664                   22874985.1244   22874977.7294
        48.7004         40.6004
 110357613.4124   85992972.9024                   21000359.4404   21000352.8344
        53.7004         47.1004
 12 10 10 15  5 30.0000000  0  9G01G07G08G11G15G17G19G26G28
 113032283.4744   88077126.5974                   21509330.8434   21509319.7794
        50.9004         47.6004
 118607515.9744   92421463.8324                   22570270.3754   22570261.4684
        49.3004         44.2004
 106525834.1624   83007158.4024                   20271201.2664   20271193.1114
        55.7004         47.9004
 112728029.4404   87840045.0554                   21451436.1024   21451428.9644
        51.4004         44.0004
 128109983.5864   99825971.2254                   24378530.8204   24378519.5714
        41.5004         40.7004
 115886681.4544   90301343.4524                   22052503.3514   22052495.6484
        50.6004         45.7004
 129242034.2974  100708083.3434                   24593948.8834   24593945.0504
        38.9004         35.7004
 120259579.9584   93708776.4134                   22884647.1994   22884638.0114
        48.1004         41.5004
 110327475.0414   85969488.4474                   20994623.7184   20994618.0574
        53.6004         47.1004
 12 10 10 15  6  0.0000000  0  9G01G07G08G11G15G17G19G26G28
 113009729.8904   88059552.3854                   21505038.9094   21505027.6984
        51.0004         47.5004
 118710863.6974   92501994.4574                   22589936.5234   22589927.6224
        49.4004         44.2004
 106562078.8474   83035401.0014                   20278098.2394   20278090.5604
        56.0004         47.6004
 112762856.9934   87867183.4014                   21458063.2144   21458055.8934
        51.3004         44.0004
 128097556.8464   99816288.0764                   24376165.7244   24376155.0974
        42.4004         40.0004
 115811587.7964   90242828.9214                   22038213.8354   22038206.2164
        50.8004         45.7004
 129349475.3474  100791803.5704                   24614398.8314   24614392.3844
        41.6004         38.8004
 120310899.6374   93748765.7454                   22894413.8884   22894404.1824
        48.3004         42.3004
 110297541.9054   85946163.9244                   20988927.4564   20988922.3474
        53.8004         47.3004
 12 10 10 15  6 30.0000000  0  9G01G07G08G11G15G17G19G26G28
 112987774.3754   88042444.1994                   21500861.3514   21500849.3144
        50.4004         48.3004
 118814491.0174   92582742.9494                   22609656.0264   22609647.2844
        49.3004         43.6004
 106598914.7714   83064104.3054                   20285107.4844   20285100.0584
        55.6004         47.6004
 112798280.1274   87894785.8364                   21464803.2684   21464798.2754
        51.9004         43.0004
 128085666.2484   99807022.6984                   24373902.3774   24373891.2724
        41.7004         41.0004
 115736797.4724   90184550.7654                   22023982.3264   22023973.9734
        50.8004         46.5004
 129456952.2204  100875551.6834                   24634850.1984   24634843.6954
        39.7004         39.8004
 120362766.5944   93789181.5264                   22904284.3994   22904273.7984
        47.9004         42.8004
 110267814.4084   85922999.6344                   20983270.9884   20983265.5354
        53.9004         47.0004
 12 10 10 15  7  0.0000000  0  9G01G07G08G11G15G17G19G26G28
 112966418.1064   88025802.9554                   21496797.3134   21496786.3254
        51.4004         47.6004
 118918396.3834   92663708.0964                   22629428.1004   22629420.3414
        49.6004         43.2004
 106636341.9934   83093268.3704                   20292229.1834   20292221.6554
        55.6004         47.1004
 112834297.7934   87922851.5474                   21471657.8334   21471652.1724
        51.8004         42.9004
 128074311.7494   99798175.0504                   24371742.3944   24371733.0314
        44.1004         39.6004
 115662311.8974   90126510.0864                   22009808.1404   22009800.0164
        51.2004         46.0004
 129564463.6434  100959326.7504                   24655307.0074   24655299.4824
        39.7004         38.1004
 120415178.4224   93830021.8684                   22914258.1264   22914247.8714
        48.2004         42.8004
 110238293.2324   85899996.1194                   20977653.5304   20977647.2374
        53.8004         47.0004
 12 10 10 15  7 30.0000000  0  9G01G07G08G11G15G17G19G26G28
 112945662.1764   88009629.5184                   21492847.5444   21492835.9834
        51.2004         47.7004
 119022576.9314   92744887.6734                   22649252.9264   22649244.7864
        49.2004         44.5004
 106674360.0774   83122892.8404                   20299464.3484   20299456.6644
        55.7004         47.2004
 112870908.7744   87951379.5714                   21478625.8184   21478617.8444
        51.1004         44.2004
 128063494.1344   99789745.7194                   24369683.0194   24369674.8364
        44.1004         38.8004
 115588131.9034   90068707.5184                   21995691.9494   21995683.3074
        50.8004         45.9004
 129672007.7094  101043127.2654                   24675775.8144   24675766.7484
        41.2004         40.6004
 120468132.7034   93871284.9004                   22924334.1024   22924324.3454
        47.9004         42.0004
 110208979.3274   85877154.1104                   20972076.0334   20972069.2924
        53.6004         47.9004
 12 10 10 15  8  0.0000000  0  9G01G07G08G11G15G17G19G26G28
 112925507.1614   87993924.3154                   21489012.0714   21489001.2804
        51.1004         47.5004
 119127030.2074   92826279.7454                   22669130.6884   22669120.9684
        49.3004         44.8004
 106712968.1884   83152977.0664                   20306811.2294   20306803.6794
        55.4004         47.4004
 112908111.3374   87980368.5684                   21485704.8194   21485697.6284
        51.5004         43.3004
 128053212.6624   99781734.1524                   24367727.0714   24367718.2924
        43.6004         38.6004
 115514257.9744   90011143.4344                   21981633.8684   21981625.2374
        50.7004         46.4004
 129779582.3644  101126951.5124                   24696247.0444   24696236.5204
        41.3004         39.1004
 120521626.4634   93912968.3264                   22934512.9524   22934503.9114
        47.7004         41.8004
 110179872.8224   85854473.7244                   20966537.2654   20966529.8964
        53.4004         47.5004
 12 10 10 15  8 30.0000000  0  9G01G07G08G11G15G17G19G26G28
 112905954.2524   87978688.2904                   21485291.1434   21485280.1914
        50.9004         47.3004
 119231754.2124   92907882.7854                   22689059.2804   22689050.9954
        50.6004         44.6004
 106752165.7034   83183520.5744                   20314270.8964   20314262.4394
        55.2004         47.7004
 112945904.2964   88009817.6054                   21492896.3534   21492889.8544
        51.7004         42.7004
 128043467.6204   99774140.6184                   24365871.8124   24365865.3914
        44.7004         37.8004
 115440691.4164   89953818.8454                   21967634.6424   21967626.9844
        51.3004         46.1004
 129887185.4624  101210798.1234                   24716720.4484   24716713.2834
        40.0004         38.2004
 120575657.3294   93955070.2924                   22944794.1344   22944786.4564
        47.9004         40.7004
 110150974.8624   85831955.8334                   20961037.9554   20961030.2134
        53.2004         47.5004
 12 10 10 15  9  0.0000000  0  9G01G07G08G11G15G17G19G26G28
 112887004.1204   87963921.9644                   21481685.0104   21481674.7864
        51.0004         47.4004
 119336746.7264   92989695.0684                   22709039.0294   22709030.7634
        50.6004         44.7004
 106791952.4324   83214523.2064                   20321841.5544   20321833.8834
        55.2004         47.6004
 112984285.9184   88039725.3564                   21500200.1914   21500194.3234
        51.8004         42.8004
 128034258.6984   99766964.8264                   24364119.1544   24364112.5194
        44.5004         38.3004
 115367432.7654   89896734.1954                   21953693.5854   21953685.7264
        50.9004         46.6004
 129994815.8004  101294665.7794                   24737202.7924   24737194.0444
        40.3004         39.9004
 120630222.5164   93997588.5924                   22955177.8384   22955168.7384
        46.6004         41.5004
 110122285.7994   85809600.7204                   20955578.3334   20955571.1464
        53.3004         47.8004
 12 10 10 15  9 30.0000000  0  9G01G07G08G11G15G17G19G26G28
 112868657.8054   87949626.1414                   21478193.4594   21478182.8864
        51.2004         47.0004
 119442005.6534   93071714.9194                   22729068.7554   22729060.2164
        50.3004         44.4004
 106832327.5494   83245984.3174                   20329524.8234   20329516.7604
        55.5004         47.4004
 113023255.0244   88070090.8754                   21507615.5204   21507608.6834
        51.5004         43.0004
 128025585.9924   99760206.8594                   24362469.2054   24362462.7334
        45.3004         38.7004
 115294482.7654   89839890.0554                   21939811.6124   21939805.5684
        52.3004         45.9004
 130102471.6764  101378553.3894                   24757689.8814   24757683.1294
        41.8004         38.0004
 120685319.5364   94040521.2954                   22965662.5464   22965654.1524
        47.7004         40.5004
 110093806.2514   85787408.8594                   20950158.9204   20950152.6124
        54.0004         47.5004
 12 10 10 15 10  0.0000000  0  9G01G07G08G11G15G17G19G26G28
 112850916.1564   87935801.4814                   21474818.2944   21474806.2564
        50.8004         47.6004
 119547528.5694   93153940.4814                   22749148.6604   22749139.4884
        49.2004         43.9004
 106873290.6624   83277903.6094                   20337319.5914   20337311.8954
        55.4004         47.1004
 113062810.3154   88100913.1594                   21515142.2714   21515136.4044
        51.4004         42.7004
 128017449.5284   99753866.7384                   24360921.7284   24360913.2244
        45.0004         39.3004
 115221842.4684   89783287.2534                   21925988.6154   21925981.2814
        51.6004         46.3004
 130210151.5324  101462459.6944                   24778179.5534   24778171.8214
        39.9004         38.6004
 120740945.7144   94083866.3274                   22976247.5124   22976239.0044
        47.3004         41.2004
 110065537.2684   85765381.0774                   20944779.5364   20944773.2254
        53.9004         47.6004
 12 10 10 15 10 30.0000000  0  9G01G07G08G11G15G17G19G26G28
 112833779.7724   87922448.4664                   21471557.2574   21471545.9094
        50.9004         47.0004
 119653312.8904   93236369.7364                   22769278.4734   22769270.3374
        49.2004         42.9004
 106914840.8244   83310280.3444                   20345226.4644   20345218.5284
        55.4004         47.0004
 113102949.9734   88132190.7974                   21522781.0114   21522774.3094
        50.7004         42.8004
 128009848.7834   99747944.0554                   24359475.0074   24359468.0754
        45.7004         38.6004
 115149512.6224   89726926.3424                   21912224.8344   21912216.9904
        51.4004         46.7004
 130317852.3774  101546382.3424                   24798674.6674   24798669.1734
        42.3004         38.2004
 120797098.1204   94127621.4204                   22986933.1864   22986925.2634
        48.0004         41.0004
 110037479.1474   85743517.6054                   20939440.1524   20939434.0514
        53.8004         47.3004
 12 10 10 15 11  0.0000000  0  9G01G07G08G11G15G17G19G26G28
 112817249.5534   87909567.7954                   21468411.2954   21468400.5054
        50.9004         46.7004
 119759356.7404   93319001.2264                   22789457.7594   22789449.4704
        49.3004         41.7004
 106956977.4454   83343114.0564                   20353245.0134   20353237.1654
        55.6004         46.8004
 113143672.5904   88163922.6974                   21530530.1634   21530523.3864
        51.1004         42.3004
 128002783.9804   99742439.0304                   24358129.9204   24358121.3504
        44.2004         38.8004
 115077494.2474   89670808.1674                   21898519.8684   21898511.4664
        50.7004         47.0004
 130425573.2474  101630320.5884                   24819171.5514   24819164.9164
        40.0004         35.7004
 120853774.1634   94171784.5394                   22997718.3414   22997709.7154
        47.4004         41.4004
 110009632.7354   85721819.1054                   20934141.1474   20934135.3354
        54.3004         47.0004
 12 10 10 15 11 30.0000000  0  9G01G07G08G11G15G17G19G26G28
 112801326.0414   87897159.8714                   21465381.4714   21465369.9804
        50.5004         47.5004
 119865657.8274   93401833.1494                   22809687.1624   22809679.4764
        49.5004         42.4004
 106999700.0304   83376404.3664                   20361374.7604   20361367.1364
        55.6004         47.0004
 113184976.4844   88196107.5334                   21538389.7064   21538383.7674
        51.0004         43.0004
 127996254.4754   99737351.1204                   24356888.1094   24356879.3714
        44.6004         38.2004
 115005787.5934   89614932.8704                   21884874.3224   21884866.6724
        51.2004         47.1004
 130533312.2034  101714272.9574                   24839675.8854   24839668.1634
        40.6004         39.5004
 120910971.0174   94216353.4794                   23008602.6004   23008592.1094
        46.0004         42.3004
 109981998.4824   85700285.9154                   20928882.4714   20928876.1194
        53.5004         47.8004
 12 10 10 15 12  0.0000000  0  9G01G07G08G11G15G17G19G26G28
 112786010.1974   87885225.4534                   21462466.1464   21462456.1604
        51.0004         46.8004
 119972213.4154   93484863.3784                   22829963.8234   22829956.1084
        49.4004         42.2004
 107043007.5694   83410150.4924                   20369615.9414   20369608.1954
        55.5004         46.9004
 113226860.2634   88228744.2374                   21546360.2294   21546354.5664
        51.4004         42.9004
 127990260.3474   99732680.3804                   24355747.3304   24355738.2564
        44.3004         38.6004
 114934393.8014   89559301.3694                   21871288.5824   21871280.7424
        51.0004         47.1004
 130641067.7094  101798238.1154                   24860181.9844   24860172.5064
        40.7004         38.1004
 120968686.0424   94261326.1824                   23019585.2904   23019576.7314
        46.7004         41.3004
 109954577.3474   85678918.7914                   20923664.2594   20923657.6674
        53.4004         47.7004
 12 10 10 15 12 30.0000000  0  9G01G07G08G11G15G17G19G26G28
 112771302.7844   87873765.1474                   21459667.4994   21459657.0904
        51.6004         47.3004
 120079021.4354   93568090.3034                   22850288.3274   22850280.9194
        49.8004         41.5004
 107086899.4264   83444351.9294                   20377967.8784   20377960.6664
        55.9004         46.8004
 113269322.4234   88261831.6194                   21554441.4054   21554434.6334
        51.6004         43.0004
 127984801.5304   99728426.7584                   24354707.6974   24354699.5114
        44.8004         39.4004
 114863313.5444   89503914.1794                   21857762.4984   21857754.9904
        51.9004         46.8004
 130748838.1124  101882215.0614                   24880687.3524   24880680.2624
        40.0004         37.7004
 121026916.5534   94306700.5724                   23030666.1864   23030656.2124
        46.1004         41.8004
 109927370.0274   85657718.2784                   20918487.1784   20918480.3834
        53.7004         47.7004
 12 10 10 15 13  0.0000000  0  9G01G07G08G11G15G17G19G26G28
 112757204.0584   87862779.1244                   21456984.8424   21456974.4334
        51.9004         47.6004
 120186079.2274   93651511.8844                   22870661.5734   22870653.7594
        49.5004         41.6004
 107131374.9874   83479008.2014                   20386431.2114   20386423.4644
        55.3004         47.0004
 113312361.0084   88295368.1544                   21562630.8554   21562623.7164
        50.5004         43.5004
 127979877.4614   99724589.8214                   24353771.5634   24353762.4984
        44.5004         39.4004
 114792547.3014   89448771.6774                   21844296.2834   21844289.1154
        51.9004         46.5004
 130856621.0724  101966201.6634                   24901199.3114   24901193.0704
        41.4004         38.5004
 121085659.4324   94352474.2064                   23041844.6084   23041836.5904
        47.0004         40.6004
 109900376.6404   85636684.4704                   20913350.8074   20913343.2314
        53.0004         48.2004
 12 10 10 15 13 30.0000000  0  9G01G07G08G11G15G17G19G26G28
 112743714.6604   87852267.9074                   21454417.7694   21454407.1464
        51.7004         47.1004
 120293384.6734   93735126.4294                   22891081.0314   22891072.3864
        49.3004         41.3004
 107176433.1184   83514118.4264                   20395005.7214   20394998.0294
        55.5004         46.8004
 113355974.3104   88329352.5194                   21570930.2124   21570922.7844
        50.6004         43.1004
 127975487.3424   99721168.9284                   24352936.5604   24352928.1604
        44.7004         39.0004
 114722096.1894   89393874.7304                   21830890.0184   21830882.4964
        52.0004         46.3004
 130964415.1024  102050196.9514                   24921710.9784   24921705.4974
        41.3004         37.0004
 121144911.8384   94398644.8794                   23053120.2104   23053111.7384
        47.2004         40.8004
 109873597.9814   85615817.9864                   20908254.8914   20908247.7914
        53.5004         47.5004
 12 10 10 15 14  0.0000000  0  9G01G07G08G11G15G17G19G26G28
 112730835.6114   87842232.2964                   21451967.4534   21451956.6144
        51.8004         47.5004
 120400935.5564   93818932.2324                   22911547.3604   22911541.1274
        50.6004         40.8004
 107222073.5684   83549682.3874                   20403690.9484   20403683.0694
        55.3004         47.0004
 113400161.2224   88363783.8614                   21579338.4264   21579330.4494
        50.7004         43.4004
 127971631.6194   99718164.4514                   24352203.1084   24352194.3044
        44.1004         39.9004
 114651960.8224   89339223.8244                   21817543.6094   21817535.7344
        51.8004         46.3004
 131072218.9544  102134199.8374                   24942227.0524   24942218.8114
        40.6004         38.3004
 121204671.3184   94445210.6724                   23064492.7134   23064483.7964
        47.1004         41.3004
 109847035.3594   85595119.8394                   20903200.0904   20903193.1314
        53.8004         47.9004
 12 10 10 15 14 30.0000000  0  9G01G07G08G11G15G17G19G26G28
 112718567.4314   87832672.6734                   21449632.7974   21449622.1994
        52.0004         47.4004
 120508729.6284   93902927.5174                   22932059.7874   22932051.7694
        49.2004         40.6004
 107268295.3954   83585699.3794                   20412486.5804   20412479.1164
        55.7004         47.2004
 113444920.0234   88398660.8254                   21587856.1484   21587849.4714
        51.2004         42.5004
 127968310.3304   99715576.4394                   24351571.1914   24351562.1884
        43.9004         39.8004
 114582142.2294   89284819.7384                   21804257.6124   21804249.5834
        51.8004         46.4004
 131180030.6984  102218208.8864                   24962741.3994   24962733.5034
        40.1004         37.0004
 121264935.0144   94492169.3644                   23075960.9934   23075950.5574
        46.9004         41.6004
 109820689.2054   85574590.3644                   20898187.1854   20898179.4584
        53.7004         47.5004
 12 10 10 15 15  0.0000000  0  9G01G07G08G11G15G17G19G26G28
 112706910.7094   87823589.5314                   21447414.1354   21447403.9144
        51.4004         47.5004
 120616764.6364   93987110.5214                   22952618.1034   22952610.0034
        48.5004         41.1004
 107315097.6334   83622168.6364                   20421392.8144   20421385.5834
        55.4004         47.5004
 113490248.7714   88433981.9244                   21596481.4444   21596474.8904
        50.8004         43.0004
 127965522.7884   99713404.3154                   24351039.9704   24351028.5794
        41.2004         42.2004
 114512640.9164   89230662.8954                   21791032.1634   21791023.8474
        51.4004         47.1004
 131287848.5154  102302222.7244                   24983258.4504   24983252.3164
        41.3004         37.4004
 121325700.0134   94539518.6584                   23087524.6504   23087515.5364
        47.0004         41.5004
 109794560.3044   85554230.1874                   20893214.2554   20893207.1234
        53.5004         47.8004
 12 10 10 15 15 30.0000000  0  9G01G07G08G11G15G17G19G26G28
 112695865.7294   87814983.0654                   21445312.6464   21445302.0914
        52.1004         47.5004
 120725037.9304   94071479.2144                   22973221.6664   22973214.4364
        48.9004         40.5004
 107362479.3214   83659089.4084                   20430409.8084   20430401.7124
        55.9004         47.6004
 113536145.9034   88469745.9084                   21605215.5544   21605208.1944
        50.5004         43.0004
 127963268.4364   99711647.6434                   24350610.8404   24350602.9124
        43.3004         40.7004
 114443457.6904   89176753.9034                   21777867.2244   21777860.4344
        52.7004         46.3004
 131395670.9564  102386240.0744                   25003776.7334   25003770.5564
        41.2004         35.5004
 121386963.3394   94587256.2854                   23099181.9194   23099173.2294
        47.2004         40.5004
 109768648.9284   85534039.5014                   20888283.5574   20888277.8474
        54.0004         47.2004
 12 10 10 15 16  0.0000000  0  9G01G07G08G11G15G17G19G26G28
 112685433.1964   87806853.8144                   21443327.5204   21443316.6834
        52.2004         47.1004
 120833547.1244   94156031.7484                   22993871.1454   22993863.2114
        48.7004         40.4004
 107410439.5654   83696461.0144                   20439535.7954   20439528.2764
        55.8004         47.2004
 113582609.5974   88505951.3674                   21614057.4284   21614049.8884
        50.3004         43.5004
 127961546.9734   99710306.2284                   24350284.3154   24350273.0754
        41.8004         41.7004
 114374593.1654   89123093.2664                   21764762.8414   21764755.7124
        52.7004         46.3004
 131503496.1474  102470259.6534                   25024295.4834   25024285.4564
        39.9004         38.7004
 121448722.2084   94635380.0314                   23110934.0634   23110924.7544
        47.0004         40.6004
 109742956.1094   85514019.1244                   20883394.3234   20883388.5194
        54.0004         47.5004
 12 10 10 15 16 30.0000000  0  9G01G07G08G11G15G17G19G26G28
 112675613.3024   87799201.9464                   21441458.4254   21441448.3534
        52.4004         46.6004
 120942290.1084   94240766.4024                   23014563.9574   23014555.4364
        48.1004         40.8004
 107458977.3224   83734282.6324                   20448772.8034   20448764.4604
        55.7004         47.2004
 113629637.8854   88542596.7624                   21623007.2464   21622998.9724
        49.9004         43.7004
 127960357.9424   99709379.6994                   24350057.8234   24350046.2094
        41.3004         42.6004
 114306047.9384   89069681.4254                   21751718.8214   21751711.2484
        52.4004         46.2004
 131611322.3304  102554279.9264                   25044814.7314   25044808.0544
        40.9004         34.9004
 121510973.3834   94683887.3964                   23122779.4564   23122771.1884
        47.4004         39.7004
 109717482.2454   85494169.3674                   20878546.7364   20878540.2264
        53.6004         47.8004
 12 10 10 15 17  0.0000000  0  9G01G07G08G11G15G17G19G26G28
 112666406.9704   87792028.1684                   21439706.2784   21439696.2134
        52.0004         47.0004
 121051264.4384   94325681.3944                   23035301.7844   23035294.4974
        48.9004         40.2004
 107508092.0844   83772553.8554                   20458118.9234   20458110.7084
        55.4004         47.2004
 113677229.6944   88579681.2614                   21632062.7704   21632057.3294
        50.7004         42.6004
 127959700.6844   99708867.5514                   24349932.6724   24349922.4474
        41.2004         41.7004
 114237823.0714   89016519.2074                   21738735.6124   21738728.0324
        52.1004         46.5004
 131719148.1744  102638300.0264                   25065332.8654   25065326.1624
        41.5004         37.2004
 121573714.5324   94732776.5554                   23134718.6364   23134710.5474
        47.5004         39.5004
 109692228.5034   85474491.1224                   20873741.1724   20873734.4154
        53.3004         48.0004
 12 10 10 15 17 30.0000000  0  9G01G07G08G11G15G17G19G26G28
 112657814.4164   87785332.6714                   21438070.9884   21438060.9894
        51.4004         47.0004
 121160467.6844   94410774.7294                   23056082.1964   23056072.1644
        47.3004         40.5004
 107557782.7734   83811273.8544                   20467574.5094   20467566.5984
        55.0004         47.1004
 113725382.9924   88617203.2924                   21641226.0494   21641220.5654
        51.6004         42.0004
 127959575.0344   99708769.6204                   24349910.7864   24349899.1444
        40.5004         41.6004
 114169918.9764   88963606.9484                   21725813.9614   21725805.9104
        51.4004         46.6004
 131826971.8534  102722318.3534                   25085851.4634   25085842.3644
        38.7004         38.7004
 121636942.4164   94782045.0114                   23146749.2354   23146742.6504
        47.2004         39.0004
 109667195.4584   85454984.8524                   20868977.8044   20868970.5394
        53.7004         47.7004
 12 10 10 15 18  0.0000000  0  9G01G07G08G11G15G17G19G26G28
 112649835.6904   87779115.4884                   21436553.0274   21436542.4894
        51.3004         47.3004
 121269896.8854   94496044.1244                   23076904.9564   23076899.9534
        48.9004         37.7004
 107608048.1554   83850441.6674                   20477139.6284   20477132.2014
        55.3004         47.3004
 113774095.4134   88655161.0094                   21650496.1684   21650489.7314
        51.2004         41.9004
 127959980.5104   99709085.5794                   24349986.3014   24349972.2934
        37.6004         44.8004
 114102335.9774   88910944.8984                   21712953.2974   21712945.6304
        51.7004         46.7004
 131934791.5724  102806333.6254                   25106368.6094   25106362.3094
        41.1004         36.5004
 121700653.7874   94831690.2174                   23158872.7524   23158867.3114
        47.1004         38.2004
 109642383.4084   85435650.7934                   20864256.3744   20864249.8454
        53.9004         47.7004
 12 10 10 15 18 30.0000000  0  9G01G07G08G11G15G17G19G26G28
 112642471.5824   87773377.2244                   21435151.4904   21435141.3104
        51.6004         47.2004
 121379550.5684   94581488.4214                   23097771.9034   23097763.1534
        46.6004         39.7004
 107658887.4044   83890056.6454                   20486814.2264   20486807.0184
        55.6004         47.1004
 113823365.7404   88693553.4604                   21659870.7884   21659865.0774
        50.5004         42.0004
 127960916.6954   99709815.0584                   24350164.9064   24350150.8034
        37.5004         43.7004
 114035075.3554   88858534.0474                   21700153.6034   21700146.8474
        51.8004         46.1004
 132042605.9674  102890344.7854                   25126884.2824   25126879.9614
        42.1004         35.7004
 121764846.0464   94881710.1284                   23171087.1544   23171081.5164
        46.6004         37.8004
 109617793.5844   85416489.8894                   20859577.0304   20859570.6034
        53.8004         47.5004
 12 10 10 15 19  0.0000000  0  9G01G07G08G11G15G17G19G26G28
 112635722.4434   87768118.1514                   21433867.2974   21433857.0234
        51.7004         47.5004
 121489426.1274   94667105.5894                   23118680.4344   23118672.8584
        46.6004         39.8004
 107710299.0694   83930117.6664                   20496597.4764   20496589.2384
        55.1004         47.6004
 113873192.3344   88732379.3664                   21669353.3264   21669346.4084
        50.2004         42.7004
 127962382.9044   99710957.5274                   24350443.7364   24350430.5894
        37.7004         44.5004
 113968137.5964   88806374.7664                   21687415.9714   21687409.1354
        52.3004         46.7004
 132150413.3574  102974350.4694                   25147400.3014   25147394.3424
        41.3004         36.5004
 121829516.3244   94932102.5234                   23183395.4634   23183387.4594
        45.8004         38.8004
 109593426.5974   85397502.6294                   20854939.9474   20854933.1374
        53.2004         48.3004
 12 10 10 15 19 30.0000000  0  9G01G07G08G11G15G17G19G26G28
 112629588.5054   87763338.4544                   21432700.2824   21432689.2664
        51.9004         47.1004
 121599521.0784   94752893.7704                   23139631.4654   23139622.6254
        46.4004         40.1004
 107762282.7354   83970624.4074                   20506489.6904   20506481.5524
        55.4004         47.2004
 113923572.7954   88771636.8464                   21678940.7694   21678934.2564
        50.4004         42.6004
 127964378.8814   99712512.8174                   24350824.7424   24350813.1954
        39.9004         41.4004
 113901523.2914   88754467.5334                   21674739.3774   21674732.9924
        52.7004         45.9004
 132258212.2904  103058349.5264                   25167913.1714   25167905.0204
        39.9004         36.6004
 121894661.4734   94982864.9344                   23195792.7144   23195783.9964
        46.1004         38.3004
 109569283.0974   85378689.5144                   20850345.6514   20850338.8884
        53.6004         48.1004
 12 10 10 15 20  0.0000000  0  9G01G07G08G11G15G17G19G26G28
 112624070.0124   87759038.3184                   21431649.5304   21431639.9354
        52.4004         46.5004
 121709832.8454   94838850.8974                   23160623.3624   23160614.1844
        46.2004         39.6004
 107814836.8934   84011575.6824                   20516490.4014   20516482.0494
        55.2004         47.0004
 113974504.9864   88811324.2484                   21688633.3244   21688625.7874
        50.3004         43.0004
 127966903.7884   99714480.2424                   24351304.6724   24351293.3974
        39.5004         41.5004
 113835233.2194   88702812.9444                   21662124.9364   21662117.9924
        52.8004         45.9004
 132366000.9894  103142340.6314                   25188424.3374   25188417.8194
        40.7004         36.1004
 121960278.3354   95033994.9204                   23208280.4344   23208270.1564
        46.3004         38.7004
 109545363.4474   85360050.8244                   20845794.0434   20845787.1244
        53.9004         47.9004
 12 10 10 15 20 30.0000000  0  9G01G07G08G11G15G17G19G26G28
 112619167.2844   87755218.0074                   21430716.3824   21430705.9774
        51.4004         47.1004
 121820359.3444   94924975.3004                   23181656.2244   23181647.1104
        46.5004         40.5004
 107867960.6174   84052970.7724                   20526599.8454   20526591.2694
        54.9004         47.1004
 114025987.3834   88851440.3794                   21698429.7014   21698422.3894
        50.3004         43.2004
 127969956.9074   99716859.2824                   24351884.9364   24351872.0724
        37.9004         42.3004
 113769267.8154   88651411.3494                   21649572.3334   21649565.6134
        52.6004         46.1004
 132473777.7434  103226322.4254                   25208934.9464   25208927.4854
        40.1004         37.1004
 122026364.0734   95085490.2674                   23220855.9564   23220847.3714
        46.6004         38.4004
 109521669.0494   85341587.6644                   20841284.9214   20841277.8744
        53.4004         48.3004
 12 10 10 15 21  0.0000000  0  9G01G07G08G11G15G17G19G26G28
 112614880.5064   87751877.6534                   21429901.5964   21429890.3834
        51.8004         46.8004
 121931097.9364   95011264.9964                   23202728.8574   23202721.3514
        47.6004         39.9004
 107921652.6664   84094808.7034                   20536816.8454   20536808.8804
        55.3004         46.6004
 114078018.7874   88891984.3144                   21708330.1904   21708324.3454
        50.5004         42.2004
 127973537.7814   99719649.5954                   24352565.9294   24352556.9454
        40.7004         40.0004
 113703627.7054   88600263.2374                   21637081.6114   21637074.2864
        52.8004         45.8004
 132581541.0634  103310293.7474                   25229440.4324   25229432.9864
        38.7004         37.0004
 122092915.6354   95137348.5834                   23233520.1044   23233511.4804
        46.5004         38.8004
 109498200.2814   85323300.3114                   20836819.0964   20836812.3784
        53.6004         48.1004
 12 10 10 15 21 30.0000000  0  9G01G07G08G11G15G17G19G26G28
 112611210.0494   87749017.5354                   21429203.1054   21429191.6284
        51.3004         47.1004
 122042046.8964   95097718.5894                   23223842.1014   23223833.3034
        46.9004         40.7004
 107975911.8564   84137088.5774                   20547141.9314   20547133.5614
        54.9004         46.3004
 114130596.4894   88932953.9434                   21718335.1544   21718329.9094
        50.6004         41.4004
 127977645.8134   99722850.6674                   24353346.3564   24353334.2754
        37.6004         42.3004
 113638313.8134   88549369.3004                   21624652.7564   21624645.4254
        52.7004         46.1004
 132689289.7794  103394253.7204                   25249947.3544   25249939.0344
        40.1004         35.0004
 122159929.9854   95189567.5004                   23246271.3034   23246262.7604
        45.9004         38.4004
 109474958.0914   85305189.5164                   20832396.1584   20832389.3054
        53.4004         48.0004
 12 10 10 15 22  0.0000000  0  9G01G07G08G11G15G17G19G26G28
 112608155.8044   87746637.6034                   21428621.8394   21428611.0704
        51.6004         46.8004
 122153202.8654   95184333.5004                   23244994.8304   23244986.4194
        47.0004         40.6004
 108030736.9194   84179809.3854                   20557575.1144   20557567.3824
        55.3004         46.3004
 114183718.4574   88974347.6654                   21728443.9764   21728438.0654
        50.2004         41.9004
 127982280.2964   99726461.9394                   24354228.7874   24354212.6104
        36.3004         43.0004
 113573326.4034   88498729.7794                   21612286.0914   21612278.4224
        52.2004         46.3004
 132797021.8564  103478200.7284                   25270444.3294   25270441.2744
        40.6004         35.2004
 122227403.8844   95242144.5494                   23259111.1614   23259103.1464
        45.5004         38.2004
 109451942.8264   85287255.5484                   20828016.1944   20828009.2534
        53.0004         48.6004
 12 10 10 15 22 30.0000000  0  9G01G07G08G11G15G17G19G26G28
 112605718.2284   87744738.1864                   21428157.8844   21428147.1604
        51.6004         47.1004
 122264563.8514   95271108.1464                   23266185.6704   23266176.2654
        46.2004         39.4004
 108086126.9984   84222970.4604                   20568115.1474   20568108.0144
        55.0004         45.9004
 114237383.0774   89016164.2444                   21738655.9434   21738650.2294
        50.9004         41.1004
 127987440.3464   99730482.7724                   24355212.4364   24355195.8714
        37.0004         42.5004
 113508666.2834   88448345.2924                   21599981.9194   21599973.3014
        51.8004         46.8004
 132904735.9834  103562133.7304                   25290942.6954   25290936.6284
        40.5004         36.2004
 122295334.5494   95295077.4564                   23272038.6554   23272028.0814
        43.9004         38.7004
 109429155.6814   85269499.3324                   20823679.9094   20823673.6084
        53.9004         47.7004
 12 10 10 15 23  0.0000000  0  9G01G07G08G11G15G17G19G26G28
 112603897.4024   87743319.3504                   21427811.9134   21427800.8164
        52.0004         47.2004
 122376127.5314   95358040.7274                   23287417.0004   23287407.4564
        47.2004         39.7004
 108142080.6754   84266570.7114                   20578762.6054   20578754.8574
        55.0004         45.8004
 114291588.5454   89058402.2494                   21748971.3884   21748966.1784
        51.0004         41.3004
 127993125.7714   99734912.9154                   24356292.8294   24356281.5644
        38.0004         42.9004
 113444334.0124   88398216.2704                   21587739.5864   21587731.6184
        52.4004         46.5004
 133012430.6884  103646051.6004                   25311438.6844   25311430.0424
        40.6004         36.2004
 122363718.7664   95348363.8184                   23285050.9444   23285044.2344
        46.0004         36.6004
 109406597.4104   85251921.4614                   20819387.2754   20819380.7544
        53.8004         47.8004
 12 10 10 15 23 30.0000000  0  9G01G07G08G11G15G17G19G26G28
 112602693.5134   87742381.2444                   21427582.2574   21427571.8004
        52.0004         46.9004
 122487891.4514   95445129.3824                   23308684.0784   23308675.4984
        47.6004         39.3004
 108198596.7004   84310609.1624                   20589516.7774   20589509.5984
        54.8004         45.7004
 114346332.6924   89101060.0174                   21759389.5034   21759382.7264
        50.7004         41.6004
 127999335.5204   99739751.7104                   24357475.7264   24357468.0524
        41.0004         40.2004
 113380330.2414   88348343.2104                   21575559.6984   21575552.3924
        52.6004         46.1004
 133120104.5754  103729953.2914                   25331926.1504   25331919.7974
        40.1004         35.9004
 122432553.5984   95402001.3344                   23298148.5344   23298143.9724
        46.4004         35.3004
 109384268.7854   85234522.5374                   20815138.2214   20815131.4794
        53.7004         47.8004
 12 10 10 15 24  0.0000000  0  9G01G07G08G11G15G17G19G26G28
 112602106.4754   87741923.8114                   21427470.9194   21427460.2794
        52.1004         46.7004
 122599853.4794   95532372.3774                   23329989.9654   23329981.3804
        46.8004         39.1004
 108255673.6804   84355084.7234                   20600378.5454   20600370.4104
        54.8004         45.7004
 114401613.2554   89144135.7464                   21769908.8114   21769902.2404
        50.2004         41.8004
 128006068.9844   99744998.5514                   24358756.5424   24358748.9054
        41.5004         40.2004
 113316655.2734   88298726.3524                   21563443.0484   21563436.0344
        53.0004         45.6004
 133227755.8434  103813837.2854                   25352411.9004   25352405.8924
        40.1004         34.9004
 122501835.6784   95455987.3594                   23311332.8444   23311326.8564
        45.9004         36.2004
 109362170.2664   85217302.9124                   20810933.0174   20810927.2944
        54.0004         47.7004
 12 10 10 15 24 30.0000000  0  9G01G07G08G11G15G17G19G26G28
 112602136.3974   87741947.1104                   21427476.4754   21427465.3024
        51.5004         47.3004
 122712010.5934   95619767.3754                   23351332.1634   23351325.2934
        46.7004         38.0004
 108313310.5274   84399996.5254                   20611346.7014   20611339.5854
        55.3004         46.1004
 114457428.2914   89187627.9584                   21780529.2684   21780523.9524
        50.0004         41.5004
 128013325.1654   99750652.7594                   24360138.0914   24360127.7604
        41.0004         42.1004
 113253309.5704   88249366.0714                   21551388.4954   21551382.2084
        53.0004         45.4004
 133335382.5814  103897702.2024                   25372894.5834   25372887.1394
        40.5004         33.6004
 122571561.9364   95510319.4774                   23324601.6024   23324594.6314
        44.8004         37.7004
 109340302.3874   85200263.0054                   20806771.6384   20806765.6044
        53.6004         47.7004
 12 10 10 15 25  0.0000000  0  9G01G07G08G11G15G17G19G26G28
 112602783.1254   87742451.0474                   21427599.6144   21427588.4064
        51.7004         47.2004
 122824360.3434   95707312.4744                   23372712.2184   23372703.1164
        45.5004         38.7004
 108371505.7654   84445343.4584                   20622420.9844   20622413.0364
        55.1004         46.4004
 114513775.7504   89231535.0704                   21791252.6654   21791246.1514
        49.8004         41.6004
 128021103.2874   99756713.6414                   24361619.0314   24361604.6844
        38.9004         43.8004
 113190293.9574   88200263.0004                   21539396.7324   21539390.3244
        52.7004         45.6004
 133442983.6444  103981547.1434                   25393370.5554   25393360.6504
        39.5004         34.8004
 122641729.2404   95564995.2384                   23337955.5914   23337947.2894
        44.7004         38.2004
 109318666.0674   85183403.5394                   20802654.0924   20802648.1874
        53.4004         47.4004
 12 10 10 15 25 30.0000000  0  9G01G07G08G11G15G17G19G26G28
 112604047.0554   87743435.9284                   21427840.1374   21427828.9174
        51.7004         47.6004
 122936901.0264   95795006.3584                   23394129.1744   23394118.7294
        45.0004         39.0004
 108430258.2794   84491124.6084                   20633601.8104   20633593.7734
        55.1004         46.9004
 114570654.1034   89275855.8514                   21802076.7464   21802069.6354
        49.7004         42.1004
 128029402.9194   99763180.8284                   24363197.5404   24363187.2964
        41.0004         43.6004
 113127609.2284   88151417.7704                   21527468.4444   21527461.7984
        52.7004         46.1004
 133550558.1354  104065371.3614                   25413838.6654   25413831.4654
        39.0004         34.8004
 122712334.6824   95620012.3984                   23351392.4944   23351383.3964
        45.3004         39.9004
 109297262.5274   85166725.4574                   20798581.0344   20798575.1974
        53.6004         47.7004
 12 10 10 15 26  0.0000000  0  9G01G07G08G11G15G17G19G26G28
 112605928.0994   87744901.6584                   21428197.7774   21428187.4574
        52.2004         47.2004
 123049629.8964   95882846.9094                   23415580.3254   23415572.6064
        46.8004         37.7004
 108489566.9004   84537339.0874                   20644888.0474   20644879.9284
        55.3004         47.1004
 114628061.2144   89320588.6394                   21813000.5174   21812993.9414
        49.8004         42.0004
 128038223.1024   99770053.7024                   24364877.1264   24364866.2304
        41.8004         44.2004
 113065256.1154   88102830.9414                   21515603.3374   21515595.4044
        52.4004         46.1004
 133658104.1894  104149173.3704                   25434305.5944   25434296.8854
        38.6004         34.5004
 122783375.0154   95675368.4514                   23364911.3774   23364901.1554
        45.0004         40.0004
 109276092.5144   85150229.3394                   20794552.5914   20794545.7944
        53.1004         48.0004
 12 10 10 15 26 30.0000000  0  9G01G07G08G11G15G17G19G26G28
 112608425.8654   87746847.9734                   21428672.9574   21428662.7614
        52.2004         46.9004
 123162544.2064   95970831.9464                   23437066.4914   23437057.6604
        45.1004         38.8004
 108549430.0044   84583985.6474                   20656279.6674   20656270.6174
        54.8004         46.9004
 114685994.3654   89365731.3504                   21824025.0104   21824018.6634
        49.8004         41.9004
 128047562.7914   99777331.3334                   24366653.0254   24366641.5504
        41.0004         44.5004
 113003234.4504   88054502.3824                   21503800.7464   21503793.7354
        52.7004         46.0004
 133765620.2054  104232952.0094                   25454764.0374   25454755.5554
        38.5004         36.2004
 122854846.9014   95731060.7614                   23378511.2744   23378500.9554
        44.0004         39.8004
 109255156.4344   85133915.5094                   20790569.0284   20790562.6984
        53.5004         48.1004
 12 10 10 15 27  0.0000000  0  9G01G07G08G11G15G17G19G26G28
 112611540.5984   87749275.0384                   21429265.8714   21429256.4034
        52.3004         46.9004
 123275641.8934   96058959.8694                   23458589.6294   23458578.4594
        44.6004         38.3004
 108609846.1104   84631063.1104                   20667776.1364   20667768.0194
        54.7004         46.6004
 114744451.7254   89411282.5164                   21835149.3814   21835141.3494
        49.3004         42.0004
 128057421.2224   99785013.2374                   24368529.1694   24368520.3424
        42.9004         42.9004
 112941544.9784   88006432.6644                   21492061.9154   21492054.1604
        52.2004         46.3004
 133873104.8494  104316706.2214                   25475218.3994   25475211.5824
        39.4004         34.1004
 122926747.2954   95787086.9974                   23392192.2904   23392185.5474
        44.8004         37.7004
 109234455.5614   85117784.9604                   20786630.3854   20786623.4914
        53.7004         48.1004
 12 10 10 15 27 30.0000000  0  9G01G07G08G11G15G17G19G26G28
 112615272.0444   87752182.6464                   21429976.6194   21429965.1224
        51.8004         47.6004
 123388920.3634   96147228.6964                   23480144.9994   23480137.4074
        46.2004         37.2004
 108670813.8004   84678570.3784                   20679377.8254   20679369.1944
        54.6004         46.6004
 114803431.3654   89457240.6574                   21846373.3174   21846365.4064
        49.7004         42.1004
 128067797.5664   99793098.6964                   24370504.0844   24370493.7724
        43.1004         44.1004
 112880188.1924   87958622.2014                   21480386.6174   21480378.5454
        52.3004         46.7004
 133980556.6964  104400434.8714                   25495667.3594   25495657.4964
        39.2004         35.3004
 122999072.9634   95843444.6264                   23405955.5094   23405945.7874
        44.0004         39.4004
 109213989.8894   85101837.6814                   20782735.7084   20782728.5524
        53.6004         48.4004
 12 10 10 15 28  0.0000000  0  9G01G07G08G11G15G17G19G26G28
 112619620.1354   87755570.7584                   21430803.4654   21430792.5564
        51.7004         47.5004
 123502377.6484   96235636.8244                   23501734.5604   23501726.9064
        45.7004         37.7004
 108732331.7434   84726506.4094                   20691083.9734   20691076.1804
        54.6004         46.1004
 114862931.5674   89503604.4374                   21857693.9214   21857688.4234
        49.8004         41.2004
 128078690.9264   99801586.9804                   24372576.3464   24372567.9504
        43.8004         43.7004
 112819165.0194   87911071.6994                   21468774.2254   21468765.7164
        52.1004         46.9004
 134087974.8664  104484137.2864                   25516109.4464   25516097.2334
        37.3004         37.8004
 123071820.7404   95900131.1624                   23419799.3784   23419789.9834
        44.5004         39.8004
 109193760.9904   85086074.9044                   20778886.1144   20778879.5434
        53.7004         48.1004
 12 10 10 15 28 30.0000000  0  9G01G07G08G11G15G17G19G26G28
 112624584.8094   87759439.3304                   21431747.8604   21431737.8894
        52.0004         47.0004
 123616010.7924   96324181.9684                   23523360.4514   23523351.1294
        46.2004         38.9004
 108794398.4174   84774870.0394                   20702894.3514   20702886.6464
        54.4004         45.8004
 114922949.6434   89550371.7584                   21869115.6074   21869109.0004
        49.4004         41.3004
 128090100.0144   99810477.1864                   24374747.0454   24374739.1174
        44.8004         43.3004
 112758475.7324   87863781.3504                   21457224.6924   21457216.7594
        52.5004         46.3004
 134195357.3604  104567811.8224                   25536542.5234   25536535.1704
        39.3004         34.0004
 123144987.4384   95957144.1234                   23433722.8784   23433712.9814
        44.5004         40.0004
 109173769.3694   85070497.0144                   20775082.1114   20775074.6824
        53.5004         48.2004
 12 10 10 15 29  0.0000000  0  9G01G07G08G11G15G17G19G26G28
 112630165.6184   87763788.0114                   21432810.6014   21432798.9834
        51.4004         47.3004
 123729816.9844   96412861.9704                   23545016.3434   23545007.3234
        45.8004         38.4004
 108857012.1734   84823659.9624                   20714809.5854   20714802.1664
        54.3004         45.6004
 114983483.0134   89597540.5964                   21880635.9494   21880628.7234
        49.7004         41.5004
 128102023.8094   99819768.4494                   24377017.0474   24377008.7334
        45.1004         43.1004
 112698120.4824   87816751.3004                   21445739.4854   21445732.5734
        52.9004         46.1004
 134302702.4144  104651457.3124                   25556970.1564   25556962.8154
        39.0004         34.7004
 123218569.6484   96014480.8464                   23447725.6414   23447716.9904
        45.4004         40.0004
 109154015.5244   85055104.4024                   20771323.0744   20771315.2994
        53.1004         48.6004
 12 10 10 15 29 30.0000000  0  9G01G07G08G11G15G17G19G26G28
 112636362.5944   87768616.8174                   21433989.6464   21433978.5944
        51.5004         47.3004
 123843794.4804   96501675.4604                   23566706.0024   23566696.6514
        45.4004         38.8004
 108920171.8594   84872875.2874                   20726828.3024   20726820.9234
        54.3004         45.7004
 115044529.8994   89645109.5764                   21892252.8144   21892244.6794
        49.1004         41.8004
 128114461.6464   99829460.2564                   24379384.4624   24379375.0894
        44.7004         43.9004
 112638099.9624   87769982.0624                   21434317.7694   21434310.4494
        52.5004         46.6004
 134410009.0094  104735072.7444                   25577391.4644   25577378.8704
        36.9004         36.9004
 123292564.4004   96072139.0264                   23461806.5144   23461797.8064
        45.9004         39.6004
 109134500.4184   85039897.8284                   20767609.3564   20767602.4284
        53.4004         48.3004
 12 10 10 15 30  0.0000000  0  9G01G07G08G11G15G17G19G26G28
 112643175.5084   87773925.5804                   21435286.0334   21435275.0034
        52.0004         47.1004
 123957940.5784   96590620.2774                   23588427.2404   23588417.7274
        45.6004         39.7004
 108983876.2784   84922515.0744                   20738950.9964   20738943.9374
        54.7004         45.7004
 115106088.3464   89693077.1604                   21903966.4084   21903960.2574
        49.8004         40.9004
 128127412.4084   99839551.7244                   24381847.9484   24381838.6834
        44.7004         43.3004
 112578414.4844   87723473.9114                   21422959.9014   21422951.9474
        52.5004         46.6004
 134517275.7864  104818657.2084                   25597802.4854   25597791.5024
        35.5004         35.9004
 123366968.4694   96130116.1614                   23475964.1034   23475955.5414
        45.3004         39.6004
 109115225.0914   85024878.0904                   20763941.4404   20763934.4564
        53.7004         48.0004
 12 10 10 15 30 30.0000000  0  9G01G07G08G11G15G17G19G26G28
 112650603.8994   87779713.9334                   21436700.0654   21436689.0214
        51.8004         47.1004
 124072252.7114   96679694.4814                   23610180.4444   23610171.2794
        45.7004         40.0004
 109048123.0224   84972577.4374                   20751177.2244   20751169.8154
        54.6004         45.8004
 115168155.8294   89741441.4174                   21915777.3824   21915771.6724
        49.7004         40.6004
 128140875.0364   99850042.0624                   24384409.6824   24384402.1344
        45.8004         42.3004
 112519064.4664   87677227.1534                   21411666.1904   21411658.2084
        52.3004         46.4004
 134624501.0734  104902209.2994                   25618206.2894   25618197.2714
        36.8004         36.3004
 123441778.4364   96188409.5674                   23490199.9054   23490190.6524
        44.0004         39.9004
 109096189.9004   85010045.4714                   20760319.6684   20760312.4624
        53.6004         48.3004
 12 10 10 15 31  0.0000000  0 10G01G07G08G09G11G15G17G19G26G28
 112658647.7464   87785981.8634                   21438230.7824   21438219.5894
        51.6004         47.7004
 124186728.6024   96768896.3254                   23631964.2964   23631954.9064
        44.5004         40.8004
 109112910.8944   85023061.4724                   20763506.0204   20763498.3224
        54.3004         46.0004
 132911580.0314                                          0.8394   25292232.8394
        36.1004
 115230730.4234   89790200.8304                   21927684.7874   21927679.5504
        50.0004         40.4004
 128154848.8814   99860930.7514                   24387068.7854   24387059.5354
        44.9004         43.0004
 112460050.8214   87631242.5074                   21400436.7944   21400429.2664
        52.7004         46.5004
 134731683.7634  104985728.2304                   25638602.8904   25638592.1514
        38.0004         36.5004
 123516991.2454   96247016.9004                   23504512.5844   23504502.8334
        43.9004         40.1004
 109077395.9434   84995400.8304                   20756743.0954   20756735.9944
        53.5004         48.5004
 12 10 10 15 31 30.0000000  0 10G01G07G08G09G11G15G17G19G26G28
 112667306.6204   87792729.0244                   21439878.1594   21439866.5584
        51.4004         47.5004
 124301365.9144   96858223.9124                   23653779.1844   23653768.6644
        43.5004         40.9004
 109178238.6304   85073966.1884                   20775937.9364   20775929.7714
        54.6004         45.8004
 132792487.2334  103474662.6524                   25269576.9914   25269569.2724
        36.0004         32.8004
 115293809.8284   89839353.6004                   21939689.3114   21939681.6454
        48.8004         40.6004
 128169332.5644   99872216.7244                   24389824.9164   24389816.9214
        46.2004         42.3004
 112401374.0204   87585520.3414                   21389271.4294   21389263.0574
        53.0004         46.8004
 134838822.9164  105069213.2314                   25658988.1104   25658979.0054
        37.1004         35.4004
 123592603.4924   96305935.4774                   23518901.6344   23518892.4444
        44.9004         39.8004
 109058843.9844   84980944.7584                   20753212.5414   20753205.8934
        53.8004         47.8004
 12 10 10 15 32  0.0000000  0 10G01G07G08G09G11G15G17G19G26G28
 112676580.1084   87799955.1184                   21441642.2834   21441631.5514
        51.7004         47.2004
 124416162.0604   96947675.2834                   23675624.7874   23675615.9324
        45.2004         39.2004
 109244104.0774   85125289.8814                   20788471.3244   20788462.9794
        54.4004         45.5004
 132673512.3524  103381954.8874                   25246935.7544   25246928.5624
        37.8004         32.9004
 115357391.7134   89888897.8874                   21951788.6604   21951780.6784
        48.7004         40.8004
 128184324.8214   99883899.0084                   24392677.4584   24392668.2724
        45.7004         41.7004
 112343034.2764   87540060.8164                   21378169.0784   21378160.9064
        53.2004         46.9004
 134945916.9534  105152663.0614                   25679369.3824   25679359.1554
        38.5004         35.1004
 123668611.9194   96365162.7654                   23533366.8284   23533356.2134
        45.7004         39.3004
 109040534.8834   84966677.9244                   20749727.7764   20749721.4644
        54.0004         47.8004
 12 10 10 15 32 30.0000000  0 10G01G07G08G09G11G15G17G19G26G28
 112686467.8914   87807659.8884                   21443524.5384   21443514.5804
        52.0004         46.9004
 124531114.4474   97037248.3934                   23697499.2704   23697488.5434
        42.8004         39.8004
 109310505.8074   85177031.4774                   20801106.8244   20801098.9114
        53.9004         45.3004
 132554657.4894  103289340.7034                   25224320.1154   25224310.9214
        37.1004         33.0004
 115421473.7514   89938831.9064                   21963982.8264   21963975.5854
        48.8004         41.1004
 128199824.8574   99895976.9454                   24395625.5004   24395619.4954
        45.7004         40.5004
 112285031.5724   87494863.9204                   21367131.2774   21367123.6444
        53.1004         47.0004
 135052964.1644  105236076.4724                   25699740.3324   25699731.5254
        38.1004         33.8004
 123745013.1974   96424696.1514                   23547905.1274   23547894.1514
        44.5004         39.9004
 109022469.3284   84952600.8754                   20746290.2194   20746283.5004
        53.4004         48.4004
 12 10 10 15 33  0.0000000  0 10G01G07G08G09G11G15G17G19G26G28
 112696969.8284   87815843.2174                   21445522.9614   21445511.8754
        51.3004         47.3004
 124646221.1604   97126941.7014                   23719402.4784   23719394.9554
        44.6004         38.8004
 109377442.5264   85229189.9344                   20813844.9164   20813837.1334
        54.1004         44.9004
 132435925.4484  103196822.1664                   25201727.7284   25201717.5624
        36.9004         33.4004
 115486054.1674   89989154.2874                   21976272.1984   21976265.5134
        49.2004         40.2004
 128215831.4914   99908449.6414                   24398672.4374   24398665.5194
        45.8004         39.9004
 112227367.2784   87449930.7114                   21356157.9954   21356150.7834
        53.2004         46.6004
 135159963.5964  105319452.5584                   25720099.9834   25720094.0704
        38.1004         34.3004
 123821804.3354   96484533.3374                   23562518.9814   23562508.4744
        45.4004         39.1004
 109004648.2974   84938714.3524                   20742899.2814   20742892.6194
        53.7004         48.0004
 12 10 10 15 33 30.0000000  0 10G01G07G08G09G11G15G17G19G26G28
 112708085.2474   87824504.5814                   21447637.6974   21447627.4924
        51.9004         46.9004
 124761479.0474   97216752.8374                   23741336.1454   23741327.0384
        43.9004         41.0004
 109444912.3164   85281763.7744                   20826683.7634   20826676.2904
        54.4004         44.3004
 132317318.8544  103104401.3804                   25179157.6064   25179148.3344
        38.2004         32.2004
 115551130.5674   90039863.1644                   21988655.1614   21988648.0984
        48.3004         41.3004
 128232343.4394   99921316.0614                   24401815.0944   24401807.0604
        46.1004         39.6004
 112170041.4204   87405261.2184                   21345249.1274   21345242.1134
        53.5004         46.2004
 135266913.9434  105402790.4234                   25740452.9284   25740446.3274
        39.7004         35.1004
 123898981.7344   96544671.4914                   23577205.0254   23577194.7044
        45.4004         38.6004
 108987072.5334   84925018.9514                   20739554.7864   20739547.9214
        53.4004         48.7004
 12 10 10 15 34  0.0000000  0 11G01G04G07G08G09G11G15G17G19G26G28
 112719813.7704   87833643.6904                   21449869.7724   21449859.7104
        52.4004         46.7004
 135308666.0174                                         -0.4004   25748383.6004
        35.6004
 124876886.1394   97306680.2594                   23763297.5384   23763287.7614
        42.7004         40.0004
 109512913.4544   85334751.6504                   20839623.4844   20839616.1544
        54.3004         44.2004
 132198840.5864  103012080.6134                   25156611.9294   25156600.9994
        38.8004         34.1004
 115616700.1544   90090956.3204                   22001132.0114   22001123.3954
        47.0004         41.7004
 128249359.5394   99934575.3514                   24405052.1234   24405045.2104
        46.1004         38.8004
 112113054.2324   87360855.6274                   21334404.5254   21334398.2634
        53.9004         46.0004
 135373813.9894  105486089.1264                   25760797.6394   25760787.0834
        37.9004         34.6004
 123976542.2164   96605108.1614                   23591963.3934   23591955.4624
        46.2004         38.0004
 108969742.8584   84911515.3084                   20736256.8414   20736250.1634
        53.5004         48.3004
 12 10 10 15 34 30.0000000  0 11G01G04G07G08G09G11G15G17G19G26G28
 112732154.9084   87843260.1664                   21452218.4454   21452206.8784
        51.0004         47.8004
 135190276.2894  105343085.2884                   25725866.6104   25725854.1454
        37.2004         31.2004
 124992439.6604   97396721.7434                   23785287.7764   23785278.1124
        44.3004         39.4004
 109581444.2734   85388152.2734                   20852664.4624   20852657.4194
        53.9004         44.7004
 132080492.8374  102919861.5494                   25134089.6054   25134081.4624
        37.5004         34.2004
 115682760.9904   90142432.2624                   22013702.5424   22013695.7364
        47.8004         40.6004
 128266878.8924   99948226.7894                   24408386.3424   24408378.5144
        44.7004         39.3004
 112056406.2114   87316714.3174                   21323625.3564   21323618.0794
        53.2004         46.8004
 135480662.2174  105569347.4294                   25781127.9734   25781118.5414
        37.3004         37.1004
 124054482.4414   96665840.7414                   23606794.3544   23606785.4744
        44.6004         38.6004
 108952659.9474   84898203.9434                   20733005.8004   20732999.6394
        53.7004         48.0004
 12 10 10 15 35  0.0000000  0 11G01G04G07G08G09G11G15G17G19G26G28
 112745108.2704   87853353.6814                   21454683.5614   21454671.5944
        51.1004         47.7004
 135071784.6724  105250754.3084                   25703317.8064   25703306.2574
        36.5004         32.0004
 125108137.3974   97486875.5974                   23807304.0384   23807294.0284
        43.3004         38.7004
 109650503.0834   85441964.3144                   20865806.4374   20865798.8754
        54.0004         45.6004
 131962278.6864  102827746.5874                   25111595.5784   25111585.7894
        36.9004         33.9004
 115749310.7744   90194289.2194                   22026367.8924   22026360.7694
        48.4004         40.8004
 128284899.7094   99962268.9834                   24411814.6774   24411808.5224
        44.6004         38.7004
 112000097.7404   87272837.6084                   21312910.5664   21312902.8004
        53.1004         47.2004
 135587457.6094  105652564.5464                   25801450.2234   25801441.3774
        37.3004         36.1004
 124132799.1574   96726866.6774                   23621697.2164   23621688.4014
        44.6004         38.6004
 108935824.9414   84885085.7544                   20729802.1134   20729795.9964
        53.7004         47.9004
 12 10 10 15 35 30.0000000  0 12G01G04G07G08G09G11G15G17G19G20G26G28
 112758673.2124   87863923.7654                   21457264.5714   21457253.0934
        51.3004         47.1004
 134953193.1214  105158345.4464                   25680750.9114   25680739.5824
        38.3004         33.0004
 125223977.0254   97577140.0504                   23829347.9204   23829338.4854
        44.5004         38.0004
 109720087.9254   85496186.2514                   20879048.3884   20879040.0774
        53.9004         45.4004
 131844200.8014  102735737.7894                   25089126.0954   25089115.8674
        37.6004         34.6004
 115816346.9164   90246525.1564                   22039125.4204   22039118.1694
        49.1004         40.4004
 128303421.1114   99976701.2164                   24415338.4754   24415331.6804
        43.7004         37.3004
 111944129.0724   87229225.6604                   21302259.6364   21302252.3024
        53.5004         46.6004
 135694198.9984  105735739.5884                   25821762.2524   25821755.1544
        37.8004         37.1004
 134884713.2174  105104982.8864                   25667716.8404   25667705.6824
        36.1004         29.9004
 124211488.9864   96788183.3504                   23636671.1754   23636662.8664
        44.5004         38.2004
 108919238.3894   84872161.1624                   20726645.6714   20726639.4474
        53.7004         47.9004
 12 10 10 15 36  0.0000000  0 12G01G04G07G08G09G11G15G17G19G20G26G28
 112772849.3534   87874970.1044                   21459962.0944   21459951.1484
        51.3004         46.8004
 134834503.5844  105065860.2584                   25658163.8974   25658150.7244
        32.5004         34.2004
 125339955.6684   97667512.8374                   23851418.9794   23851407.6054
        44.4004         39.3004
 109790197.5234   85550817.0794                   20892389.0674   20892381.6524
        53.6004         45.3004
 131726262.1754  102643837.5154                   25066679.5994   25066672.8684
        37.2004         33.6004
 115883867.5134   90299138.5764                   22051973.7994   22051964.6134
        47.5004         41.5004
 128322442.2434   99991522.8364                   24418958.8974   24418952.2584
        44.1004         37.4004
 111888500.9844   87185879.0974                   21291674.3844   21291666.6444
        53.2004         46.9004
 135800885.0154  105818871.4934                   25842065.1144   25842057.6204
        37.0004         36.0004
 134801857.4434  105040420.0574                   25651951.5624   25651938.8734
        38.2004         33.2004
 124290548.6424   96849788.2064                   23651715.9114   23651709.1424
        44.7004         38.1004
 108902901.1924   84859430.8774                   20723537.2124   20723530.6894
        53.5004         48.2004
 12 10 10 15 36 30.0000000  0 12G01G04G07G08G09G11G15G17G19G20G26G28
 112787636.0594   87886492.2144                   21462775.6464   21462764.5994
        51.3004         47.0004
 134715718.4794  104973300.5684                   25635560.2934   25635548.4004
        34.9004         32.3004
 125456070.9684   97757992.1094                   23873515.4514   23873504.4494
        44.4004         39.7004
 109860830.0304   85605855.3684                   20905830.5384   20905822.5154
        53.7004         45.6004
 131608465.7724  102552048.1264                   25044263.7214   25044254.2634
        35.7004         35.2004
 115951869.8624   90352127.4044                   22064913.3944   22064904.8864
        47.5004         41.5004
 128341961.2394  100006732.4434                   24422672.8194   24422665.5614
        44.2004         37.9004
 111833213.5414   87142797.9974                   21281153.2164   21281145.5594
        53.3004         46.9004
 135907514.5354  105901959.3354                   25862355.0994   25862347.8504
        38.3004         36.4004
 134718988.0024  104975846.6434                   25636180.4494   25636168.9264
        38.5004         31.6004
 124369974.7944   96911678.6204                   23666831.9004   23666822.9894
        45.0004         38.7004
 108886814.4524   84846895.7474                   20720476.1304   20720469.6884
        53.5004         48.2004
 12 10 10 15 37  0.0000000  0 12G01G04G07G08G09G11G15G17G19G20G26G28
 112803032.5584   87898489.4744                   21465706.1034   21465695.0094
        51.7004         46.7004
 134596839.5584  104880667.8234                   25612942.9674   25612922.0064
        33.6004         34.3004
 125572320.3674   97848575.7834                   23895636.6704   23895625.8174
        43.6004         39.0004
 109931983.0184   85661299.2284                   20919370.8204   20919362.2564
        53.4004         45.3004
 131490814.0954  102460371.4894                   25021879.0764   25021866.5234
        36.7004         35.5004
 116020351.6114   90405489.7804                   22077943.5284   22077938.2714
        48.7004         39.5004
 128361976.7894  100022328.9994                   24426481.9684   24426474.0304
        42.2004         36.9004
 111778266.7264   87099982.3074                   21270697.3844   21270688.9784
        53.0004         46.7004
 136014086.1804  105985002.1564                   25882635.3064   25882629.7894
        38.1004         34.2004
 134636107.3014  104911264.4774                   25620408.6214   25620398.8494
        37.3004         30.5004
 124449763.8544   96973851.8224                   23682015.4024   23682006.1774
        45.0004         38.3004
 108870978.6334   84834556.1444                   20717462.5654   20717455.8954
        53.6004         47.8004
 12 10 10 15 37 30.0000000  0 12G01G04G07G08G09G11G15G17G19G20G26G28
 112819038.3074   87910961.4764                   21468751.6904   21468740.6364
        51.3004         47.4004
 134477869.1554  104787963.8404                   25590300.6284   25590287.1134
        37.7004         28.4004
 125688701.6524   97939262.2604                   23917782.3444   23917772.1674
        42.7004         38.6004
 110003654.7794   85717147.3254                   20933008.9374   20933000.6634
        53.0004         45.6004
 131373309.9934  102368809.7814                   24999517.6854   24999506.7334
        36.1004         33.8004
 116089310.3254   90459223.8414                   22091066.9804   22091060.4804
        48.7004         40.8004
 128382487.6814  100038311.5014                   24430386.1514   24430375.4064
        40.2004         38.8004
 111723660.9194   87057432.3334                   21260305.8794   21260298.2794
        53.1004         47.2004
 136120599.1104  106067999.1784                   25902904.4064   25902897.9014
        38.2004         34.7004
 134553218.3944  104846675.9074                   25604636.0124   25604624.5914
        34.7004         35.1004
 124529912.6624   97036305.3614                   23697268.0954   23697259.1814
        45.5004         39.2004
 108855394.5224   84822412.6814                   20714496.7734   20714490.3044
        53.4004         48.4004
 12 10 10 15 38  0.0000000  0 12G01G04G07G08G09G11G15G17G19G20G26G28
 112835652.9654   87923907.9644                   21471912.8244   21471903.3134
        51.6004         47.0004
 134358809.5594  104695190.2514                   25567640.3054   25567629.7744
        38.3004         25.6004
 125805212.4944   98030049.7104                   23939952.7754   23939943.8984
        43.3004         37.7004
 110075844.0014   85773398.6494                   20946745.9704   20946738.1154
        53.0004         45.6004
 131255956.6504  102277365.6054                   24977186.3574   24977176.5884
        35.9004         35.5004
 116158744.5214   90513328.3844                   22104279.6984   22104274.2334
        49.2004         40.6004
 128403492.8124  100054679.0654                   24434382.0084   24434372.5364
        40.2004         38.8004
 111669397.2394   87015148.9474                   21249980.1714   21249972.3994
        52.9004         47.4004
 136227052.0004  106150949.4354                   25923162.8284   25923152.8924
        35.2004         34.9004
 134470324.3914  104782083.3334                   25588862.7094   25588850.1924
        36.4004         31.9004
 124610418.0144   97099036.7224                   23712587.3114   23712577.9674
        44.3004         39.6004
 108840063.3204   84810466.2844                   20711579.1574   20711572.5194
        53.1004         48.2004
 12 10 10 15 38 30.0000000  0 12G01G04G07G08G09G11G15G17G19G20G26G28
 112852875.5624   87937328.1684                   21475190.7354   21475179.9424
        51.6004         47.1004
 134239662.6724  104602348.5794                   25544972.9234   25544955.7064
        39.4004         27.7004
 125921850.1424   98120935.9564                   23962149.0624   23962139.3094
        43.2004         38.1004
 110148548.4284   85830051.4254                   20960582.0304   20960573.2474
        53.2004         45.3004
 131138756.6484  102186040.8944                   24954884.8354   24954873.2064
        36.4004         34.0004
 116228650.6514   90567800.6814                   22117583.7134   22117577.5194
        49.6004         40.8004
 128424990.7494  100071430.6854                   24438472.2854   24438467.0914
        42.3004         36.6004
 111615475.6114   86973132.1104                   21239719.1364   21239710.9254
        53.1004         47.0004
 136333444.0004  106233852.1804                   25943406.0414   25943400.7504
        34.4004         33.9004
 134387427.8074  104717488.7714                   25573088.9104   25573074.6364
        37.9004         32.7004
 124691276.3084   97162043.1074                   23727973.7064   23727963.8064
        44.5004         39.4004
 108824985.5514   84798717.3714                   20708710.2204   20708703.4714
        53.2004         48.4004
 12 10 10 15 39  0.0000000  0 12G01G04G07G08G09G11G15G17G19G20G26G28
 112870705.5544   87951221.6634                   21478584.2024   21478572.3014
        51.0004         47.8004
 134120431.0424  104509440.9404                   25522282.3974   25522267.3604
        40.5004         25.9004
 126038612.1464   98211919.1714                   23984368.5944   23984358.7194
        43.5004         38.0004
 110221766.4974   85887104.4414                   20974514.8824   20974506.6034
        53.4004         45.8004
 131021713.1494  102094838.1484                   24932611.6884   24932597.7264
        36.1004         35.5004
 116299026.7504   90622639.1724                   22130975.4844   22130967.1464
        48.4004         41.1004
 128446979.9694  100088565.1384                   24442656.5574   24442648.7124
        41.1004         38.3004
 111561896.4104   86931382.0894                   21229523.1574   21229515.8864
        53.1004         47.5004
 136439774.1734  106316706.9034                   25963643.1334   25963634.4204
        35.0004         35.2004
 134304531.2644  104652894.2144                   25557313.3384   25557300.7154
        37.6004         31.7004
 124772484.4144   97225322.0904                   23743428.3204   23743419.7244
        45.4004         38.8004
 108810162.0014   84787166.5534                   20705889.6224   20705883.4034
        53.6004         47.8004
 12 10 10 15 39 30.0000000  0 13G01G04G07G08G09G11G15G17G19G20G26G28
                                G32
 112889142.1784   87965587.8604                   21482092.1794   21482080.6154
        50.7004         47.6004
 134001116.7994  104416468.9864                   25499574.8734   25499562.4794
        39.0004         28.8004
 126155496.2624   98302997.4904                   24006612.2424   24006600.4764
        41.9004         38.7004
 110295496.2294   85944556.1634                   20988544.7334   20988537.2454
        53.7004         45.4004
 130904828.8614  102003759.4444                   24910367.6624   24910356.5974
        36.2004         35.8004
 116369870.5724   90677842.1294                   22144457.2364   22144448.8284
        48.8004         41.2004
 128469459.1334  100106081.3734                   24446935.8484   24446925.2994
        40.2004         39.5004
 111508659.9464   86889899.1424                   21219392.4374   21219384.4454
        52.9004         47.2004
 136546041.1624  106399512.2974                   25983861.8614   25983855.7874
        35.6004         32.5004
 134221637.8394  104588302.0404                   25541538.0154   25541525.5724
        38.3004         32.3004
 124854038.8084   97288870.8714                   23758948.9024   23758937.6064
        44.6004         39.0004
 108795593.8644   84775814.7544                   20703117.2374   20703110.6184
        53.6004         48.1004
 134833135.8324  105064803.8734                   25657902.5454   25657891.9884
        36.6004         29.3004
 12 10 10 15 40  0.0000000  0 13G01G04G07G08G09G11G15G17G19G20G26G28
                                G32
 112908184.6944   87980426.1714                   21485715.3254   21485704.8284
        51.2004         46.9004
 133881722.0814  104323434.2844                   25476854.8054   25476842.0324
        40.8004         29.8004
 126272499.7824   98394168.8024                   24028877.0024   24028865.9554
        41.3004         39.7004
 110369735.7374   86002405.1014                   21002672.3864   21002664.1594
        53.3004         45.5004
 130788106.7194  101912807.0704                   24888158.1584   24888145.8554
        35.7004         33.3004
 116441179.2974   90733407.3544                   22158026.1974   22158019.3234
        49.0004         40.6004
 128492426.9354  100123978.3104                   24451305.1744   24451295.5054
        40.8004         39.2004
 111455766.4854   86848683.4644                   21209327.5024   21209319.2464
        53.0004         47.3004
 136652244.1114  106482267.8234                   26004070.2214   26004065.9414
        33.4004         31.5004
 134138750.1984  104523714.4374                   25525765.1524   25525752.0714
        37.1004         35.2004
 124935936.0934   97352686.8544                   23774531.3424   23774521.6714
        44.5004         38.6004
 108781281.7924   84764662.4864                   20700393.8104   20700387.2944
        53.4004         48.2004
 134767138.5124  105013377.5994                   25645341.9704   25645329.5324
        33.7004         32.2004
 12 10 10 15 40 30.0000000  0 12G01G04G07G08G09G11G15G17G20G26G28G32
 112927832.3044   87995736.0054                   21489454.5104   21489443.8954
        51.3004         46.9004
 133762249.4254  104230338.8544                   25454122.8864   25454108.2774
        40.0004         28.4004
 126389620.2584   98485431.2434                   24051166.2144   24051152.5734
        39.2004         41.0004
 110444483.1094   86060649.7884                   21016896.1224   21016888.3704
        53.6004         45.4004
 130671549.6124  101821983.3914                   24865972.9624   24865966.0624
        37.2004         34.3004
 116512950.8934   90789333.2574                   22171685.1584   22171675.4764
        48.3004         41.2004
 128515881.7234  100142254.7534                   24455769.2824   24455760.0924
        41.2004         39.0004
 111403216.3254   86807735.3004                   21199327.3734   21199319.8694
        53.3004         47.1004
 134055871.1304  104459133.4934                   25509994.5164   25509980.7284
        38.1004         35.3004
 125018172.9434   97416767.4284                   23790180.6324   23790170.1834
        43.3004         38.0004
 108767226.6854   84753710.4514                   20697719.2974   20697712.2434
        53.3004         48.2004
 134701345.1304  104962110.2174                   25632822.6054   25632813.4414
        37.6004         29.4004
 12 10 10 15 41  0.0000000  0 12G01G04G07G08G09G11G15G17G20G26G28G32
 112948083.9474   88011516.5124                   21493308.2364   21493297.2464
        51.1004         47.0004
 133642700.3554  104137183.9224                   25431369.3884   25431357.8794
        39.1004         33.6004
 126506855.0784   98576782.7694                   24073473.8834   24073462.9074
        41.3004         39.6004
 110519736.0884   86119288.4374                   21031216.9614   21031208.4364
        53.3004         46.0004
 130555160.2394  101731290.3894                   24843827.0274   24843818.6984
        36.3004         33.2004
 116585182.6784   90845617.7304                   22185428.9264   22185420.9214
        48.3004         40.6004
 128539821.5614  100160909.1534                   24460325.6064   24460316.7604
        41.7004         40.2004
 111351009.3724   86767054.5664                   21189392.3234   21189384.9714
        53.3004         46.9004
 133973003.3534  104394561.3294                   25494223.7274   25494211.4904
        38.5004         34.5004
 125100745.7384   97481109.7634                   23805892.9874   23805883.8894
        44.1004         37.4004
 108753429.1034   84742959.0934                   20695093.8334   20695086.6104
        53.4004         47.7004
 134635758.4654  104911003.8084                   25620340.2194   25620332.8684
        36.2004         27.7004
 12 10 10 15 41 30.0000000  0 12G01G04G07G08G09G11G15G17G20G26G28G32
 112968939.4714   88027767.5624                   21497276.6044   21497265.7274
        50.8004         47.3004
 133523078.1854  104043972.0014                   25408608.1674   25408595.1444
        40.7004         33.2004
 126624202.2704   98668221.8834                   24095805.1724   24095795.0864
        42.3004         39.9004
 110595493.0884   86178319.8244                   21045633.0624   21045624.4704
        53.2004         46.5004
 130438942.1824  101640730.8184                   24821710.7514   24821702.0914
        36.7004         36.7004
 116657872.7214   90902259.2944                   22199261.0224   22199255.3084
        49.0004         40.2004
 128564246.2324  100179941.3284                   24464974.6384   24464964.6254
        42.7004         40.9004
 111299146.6414   86726642.0564                   21179522.9994   21179516.3424
        53.4004         47.1004
 133890150.2394  104330000.5764                   25478457.4744   25478445.3754
        37.9004         35.4004
 125183651.4764   97545711.5874                   23821669.7674   23821661.8984
        45.0004         36.8004
 108739890.3434   84732409.4184                   20692517.3324   20692510.8124
        53.5004         48.0004
 134570381.8084  104860061.0544                   25607901.2534   25607890.5234
        37.7004         31.5004
 12 10 10 15 42  0.0000000  0 12G01G04G07G08G09G11G15G17G20G26G28G32
 112990397.6404   88044488.2134                   21501360.3974   21501349.5834
        51.1004         47.2004
 133403384.4764  103950704.3004                   25385832.4824   25385821.7474
        38.4004         34.1004
 126741658.8424   98759746.2584                   24118155.9164   24118144.0994
        41.6004         40.5004
 110671751.7864   86237742.1724                   21060144.0284   21060136.1314
        53.6004         46.1004
 130322898.1504  101550306.9064                   24799630.2074   24799620.8634
        38.0004         34.9004
 116731018.0364   90959255.6384                   22213179.4294   22213173.6374
        48.6004         40.9004
 128589153.6894  100199349.7054                   24469713.7354   24469705.5334
        44.1004         40.6004
 111247628.1294   86686497.7654                   21169719.5374   21169712.6704
        53.7004         47.1004
 133807314.5814  104265453.4434                   25462694.6074   25462682.9714
        38.3004         34.5004
 125266886.5984   97610570.0524                   23837508.5454   23837499.9604
        44.2004         37.6004
 108726610.9604   84722061.8424                   20689990.1954   20689983.5434
        53.3004         48.6004
 134505217.5164  104809283.8034                   25595499.1454   25595489.8664
        35.2004         33.0004
 12 10 10 15 42 30.0000000  0 12G01G04G07G08G09G11G15G17G20G26G28G32
 113012457.5694   88061677.7704                   21505557.6724   21505547.0914
        51.0004         46.8004
 133283621.8934  103857382.9424                   25363040.4084   25363025.7094
        37.7004         36.7004
 126859222.6984   98851354.2664                   24140526.0364   24140518.1554
        43.1004         38.2004
 110748510.3894   86297554.0484                   21074750.8344   21074742.8814
        53.3004         45.7004
 130207031.0994  101460020.8544                   24777578.2674   24777572.0484
        37.5004         34.3004
 116804616.4454   91016605.0224                   22227185.4584   22227177.7934
        48.1004         40.1004
 128614542.1604  100219132.8994                   24474544.0584   24474536.2184
        43.3004         40.4004
 111196453.9604   86646621.7964                   21159981.4484   21159974.2184
        53.3004         47.0004
 133724498.9814  104200921.9444                   25446932.4254   25446923.2814
        39.5004         33.5004
 125350447.5904   97675682.4124                   23853410.0894   23853401.9404
        44.7004         37.0004
 108713591.9084   84711917.1184                   20687512.5904   20687506.3084
        53.6004         47.8004
 134440268.5814  104758674.3284                   25583140.6024   25583132.5994
        36.3004         29.9004
 12 10 10 15 43  0.0000000  0 12G01G04G07G08G09G11G15G17G20G26G28G32
 113035118.4564   88079335.6024                   21509869.8614   21509858.3614
        50.6004         47.3004
 133163792.5824  103764009.7124                   25340237.0684   25340224.2604
        36.1004         33.9004
 126976891.1424   98943043.7084                   24162918.4054   24162908.5644
        41.3004         39.0004
 110825766.6664   86357753.7184                   21089452.1444   21089444.2654
        53.4004         45.8004
 130091343.9214  101369875.0384                   24755566.3804   24755558.1724
        38.5004         33.5004
 116878665.1364   91074305.2814                   22241276.4144   22241270.8274
        48.9004         39.3004
 128640410.2134  100239289.7814                   24479466.0994   24479457.0584
        42.0004         40.1004
 111145624.6434   86607014.5344                   21150309.2624   21150301.8714
        53.6004         47.2004
 133641706.5054  104136408.4764                   25431178.9404   25431169.4454
        38.9004         33.3004
 125434331.1814   97741046.1434                   23869373.8734   23869361.0224
        43.7004         38.8004
 108700834.0434   84701975.9264                   20685084.9824   20685078.3744
        53.2004         47.9004
 134375537.9484  104708235.0764                   25570820.3194   25570811.8164
        35.0004         31.5004
 12 10 10 15 43 30.0000000  0 12G01G04G07G08G09G11G15G17G20G26G28G32
 113058379.3314   88097460.9544                   21514295.9484   21514285.2894
        51.0004         46.7004
 133043899.0874  103670586.2284                   25317423.1354   25317410.3504
        36.1004         35.5004
 127094661.7924   99034812.8064                   24185331.2034   24185319.1194
        40.5004         39.7004
 110903518.8674   86418339.8124                   21104248.0684   21104240.5944
        53.6004         45.6004
 129975839.6744  101279871.7224                   24733585.5444   24733578.3234
        38.7004         33.2004
 116953161.6114   91132354.4644                   22255453.1944   22255446.3544
        48.9004         40.1004
 128666756.4464  100259819.2744                   24484481.7564   24484471.6454
        42.7004         40.5004
 111095140.1224   86567675.9504                   21140702.8924   21140695.5034
        53.7004         47.1004
 133558940.0154  104071915.2034                   25415429.9494   25415417.7454
        38.4004         33.2004
 125518533.8194   97806658.4954                   23885394.8224   23885386.1054
        44.3004         37.6004
 108688338.2364   84692238.9274                   20682707.1464   20682700.4304
        53.5004         48.1004
 134311028.1344  104657967.9114                   25558547.7204   25558536.4404
        35.7004         33.6004
 12 10 10 15 44  0.0000000  0 12G01G04G07G08G09G11G15G17G20G26G28G32
 113082239.3924   88116053.2024                   21518836.4464   21518826.0944
        51.3004         46.4004
 132923943.4774  103577114.6064                   25294598.9624   25294579.6494
        37.6004         37.0004
 127212532.3774   99126659.7414                   24207762.0364   24207751.7774
        41.9004         39.3004
 110981764.7934   86479310.6394                   21119137.9504   21119129.6224
        53.2004         45.8004
 129860521.4894  101190013.4164                   24711640.9964   24711633.6784
        38.8004         32.8004
 117028103.7624   91190750.9084                   22269714.1074   22269707.3314
        48.6004         39.6004
 128693579.3024  100280720.1924                   24489586.5944   24489578.9494
        44.9004         40.6004
 111045000.5694   86528606.1774                   21131161.6574   21131153.3504
        53.6004         47.3004
 133476202.3554  104007444.4784                   25399682.3994   25399674.4924
        39.2004         33.0004
 125603052.2444   97872516.8894                   23901478.6314   23901469.3014
        43.6004         37.6004
 108676105.4054   84682706.8494                   20680379.5504   20680373.3024
        53.8004         47.7004
 134246742.3394  104607875.2154                   25546312.4444   25546303.7994
        36.5004         30.8004
 12 10 10 15 44 30.0000000  0 12G01G04G07G08G09G11G15G17G20G26G28G32
 113106697.6104   88135111.5484                   21523491.0934   21523480.6694
        51.5004         46.4004
 132803928.2244  103483596.2394                   25271755.6114   25271743.9124
        38.8004         33.2004
 127330500.2044   99218582.4824                   24230210.5594   24230198.8134
        40.6004         41.5004
 111060502.5004   86540664.6544                   21134120.9574   21134112.5374
        53.0004         45.7004
 129745392.2854  101100302.3214                   24689733.6714   24689726.0954
        39.6004         34.5004
 117103488.9094   91249492.5674                   22284059.2494   22284052.8154
        48.3004         39.9004
 128720876.9654  100301991.0674                   24494780.2364   24494773.6884
        45.1004         40.3004
 110995206.4884   86489805.6174                   21121686.3484   21121678.4544
        53.9004         47.6004
 133393496.4834  103942998.5314                   25383945.4314   25383934.7704
        38.1004         34.9004
 125687883.0624   97938618.7144                   23917622.7054   23917612.7814
        44.0004         37.3004
 108664136.2064   84673380.2004                   20678101.7194   20678095.0894
        53.3004         48.2004
 134182683.3364  104557959.2184                   25534122.5334   25534112.3584
        36.4004         31.0004
 12 10 10 15 45  0.0000000  0 12G01G04G07G08G09G11G15G17G20G26G28G32
 113131753.0204   88154635.2324                   21528258.7784   21528248.2094
        51.1004         46.7004
 132683855.7604  103390033.4444                   25248907.9434   25248893.4114
        39.4004         35.3004
 127448563.0214   99310579.2484                   24252678.9704   24252666.1824
        41.5004         41.7004
 111139729.9984   86602400.3504                   21149197.4494   21149188.9624
        52.9004         45.7004
 129630454.8964  101010740.7504                   24667862.5254   24667854.5564
        39.2004         34.6004
 117179314.5794   91308577.4794                   22298488.6134   22298482.1964
        48.4004         39.7004
 128748648.2464  100323630.9934                   24500065.3524   24500057.4224
        43.8004         40.0004
 110945758.2134   86451274.4984                   21112276.2994   21112269.0824
        54.0004         47.3004
 133310825.3284  103878579.6284                   25368211.3444   25368202.6324
        38.1004         34.2004
 125773022.8004   98004961.2754                   23933824.4234   23933814.6344
        43.9004         37.6004
 108652431.7594   84664259.8404                   20675874.2414   20675867.9694
        53.2004         47.9004
 134118853.8794  104508222.0764                   25521977.7054   25521966.4004
        36.4004         33.4004
 12 10 10 15 45 30.0000000  0 12G01G04G07G08G09G11G15G17G20G26G28G32
 113157404.6744   88174623.5164                   21533140.1694   21533130.2364
        51.4004         46.2004
 132563728.6254  103296427.8784                   25226044.7404   25226034.2954
        38.5004         29.5004
 127566718.2844   99402648.0754                   24275161.5374   24275149.4504
        41.0004         40.8004
 111219445.0984   86664515.9794                   21164366.6354   21164358.5574
        53.2004         45.3004
 129515712.5414  100921331.1074                   24646027.2724   24646018.0934
        38.6004         34.4004
 117255578.2954   91368003.7274                   22313002.3804   22312995.2664
        48.8004         39.4004
 128776890.9874  100345638.2664                   24505439.4134   24505429.9264
        43.0004         40.0004
 110896655.9834   86413013.0284                   21102932.2934   21102925.5174
        54.1004         46.9004
 133228191.7524  103814190.0234                   25352487.8204   25352477.0284
        36.7004         35.2004
 125858468.0644   98071541.9204                   23950084.9414   23950075.6694
        44.5004         37.7004
 108640992.8374   84655346.4004                   20673697.5024   20673690.7624
        52.9004         47.9004
 134055257.0444  104458666.2574                   25509872.7914   25509865.7464
        37.3004         32.0004
 12 10 10 15 46  0.0000000  0 12G01G04G07G08G09G11G15G17G20G26G28G32
 113183651.4154   88195075.5154                   21538134.6664   21538125.0194
        51.8004         45.5004
 132443548.8854  103202781.3494                   25203178.8654   25203167.6134
        42.4004         32.2004
 127684963.1094   99494786.6644                   24297662.6274   24297652.7194
        42.5004         38.8004
 111299645.5144   86727009.7934                   21179628.0684   21179620.9074
        53.6004         44.8004
 129401168.4364  100832075.9504                   24624231.0994   24624220.8414
        38.7004         35.2004
 117332277.5224   91427769.3214                   22327597.1704   22327589.1674
        48.0004         40.0004
 128805603.9334  100368011.9754                   24510902.8724   24510895.2544
        44.8004         39.6004
 110847899.7284   86375021.1454                   21093653.5784   21093646.4254
        53.7004         46.4004
 133145598.7084  103749831.9384                   25336772.5424   25336760.6494
        38.5004         33.9004
 125944215.3304   98138357.8834                   23966403.0314   23966391.8854
        44.3004         38.6004
 108629820.4244   84646640.6194                   20671571.2964   20671564.8394
        53.1004         48.0004
 133991895.5124  104409293.7054                   25497819.9104   25497805.8254
        35.6004         27.8004
 12 10 10 15 46 30.0000000  0 12G01G04G07G08G09G11G15G17G20G26G28G32
 113210492.1574   88215990.3704                   21543242.3824   21543231.8694
        51.0004         46.2004
 132323318.6654  103109095.4914                   25180302.0484   25180285.2624
        38.2004         31.7004
 127803295.4594   99586993.4944                   24320181.7124   24320171.7054
        41.4004         37.8004
 111380328.8744   86789879.9134                   21194982.1044   21194973.9974
        53.1004         45.6004
 129286825.1074  100742977.3294                   24602471.3944   24602460.4574
        38.8004         35.8004
 117409409.4474   91487872.0824                   22342274.6024   22342267.4954
        48.3004         39.6004
 128834785.1494  100390750.5764                   24516456.4064   24516449.2664
        45.3004         40.1004
 110799489.6424   86337298.9994                   21084441.1744   21084434.4534
        53.9004         46.6004
 133063048.9554  103685507.6304                   25321060.7294   25321052.2684
        39.3004         34.1004
 126030261.1664   98205406.4584                   23982777.5124   23982765.7304
        44.0004         39.6004
 108618914.9644   84638142.8534                   20669496.2564   20669489.9484
        53.3004         47.8004
 133928772.0214  104360106.6664                   25485809.8544   25485794.6994
        35.5004         35.0004
 12 10 10 15 47  0.0000000  0 12G01G04G07G08G09G11G15G17G20G26G28G32
 113237925.8314   88237367.2614                   21548462.5984   21548452.4604
        51.0004         46.3004
 132203040.7674  103015372.4734                   25157414.2774   25157402.4354
        39.7004         34.3004
 127921712.7334   99679266.4874                   24342716.3424   24342703.2484
        37.5004         37.6004
 111461493.2664   86853124.8644                   21210426.9524   21210419.0624
        53.0004         45.6004
 129172685.7454  100654037.5364                   24580751.0754   24580740.1124
        39.1004         33.6004
 117486971.7404   91548310.2064                   22357033.8004   22357027.8544
        48.8004         39.3004
 128864433.0774  100413852.8164                   24522099.2634   24522091.2414
        45.4004         40.6004
 110751425.9164   86299846.7574                   21075295.5274   21075287.8334
        53.6004         47.1004
 132980545.4214  103621219.3444                   25305362.8814   25305352.4294
        39.7004         34.1004
 126116602.0884   98272684.9974                   23999207.5174   23999195.4384
        44.3004         39.2004
 108608277.7354   84629854.0974                   20667472.0694   20667465.6354
        52.9004         48.1004
 133865889.5364  104311107.3824                   25473839.9864   25473828.0364
        34.0004         34.7004
 12 10 10 15 47 30.0000000  0 12G01G04G07G08G09G11G15G17G20G26G28G32
 113265951.5384   88259205.4554                   21553796.3054   21553785.7014
        50.7004         46.5004
 132082717.5674  102921614.2444                   25134513.2624   25134500.5634
        37.5004         34.3004
 128040213.0704   99771604.1604                   24365264.5164   24365253.5594
        36.8004         35.5004
 111543136.7354   86916743.1234                   21225963.9594   21225955.4364
        52.7004         45.8004
 129058753.5474  100565259.2354                   24559072.8784   24559063.3754
        39.5004         34.7004
 117564962.1034   91609081.8934                   22371874.6104   22371867.7904
        48.2004         40.1004
 128894546.4974  100437317.7834                   24527829.2984   24527820.9484
        44.9004         41.8004
 110703709.0234   86262664.7624                   21066215.9264   21066208.4154
        53.9004         47.3004
 132898091.2584  103556969.5504                   25289671.5664   25289659.9084
        39.4004         33.0004
 126203234.7854   98340190.9164                   24015692.9374   24015682.0404
        44.7004         38.6004
 108597909.2714   84621774.7664                   20665499.1564   20665492.3904
        53.0004         48.2004
 133803250.8624  104262298.1904                   25461923.0794   25461908.6964
        34.5004         32.5004
 12 10 10 15 48  0.0000000  0 12G01G04G07G08G09G11G15G17G20G26G28G32
 113294567.9714   88281503.9814                   21559241.8034   21559230.6954
        50.9004         46.1004
 131962351.5344  102827822.5134                   25111609.8494   25111598.3644
        37.9004         36.2004
 128158792.9894   99864003.8804                   24387831.1734   24387817.8874
        38.3004         38.2004
 111625256.9004   86980732.8184                   21241590.6664   21241582.4554
        52.9004         45.0004
 128945031.5924  100476644.7504                   24537432.0074   24537423.4934
        42.2004         33.5004
 117643377.5304   91670184.8014                   22386795.9114   22386790.3764
        48.7004         39.2004
 128925122.7814  100461143.4534                   24533647.8604   24533638.3124
        45.2004         40.1004
 110656338.9214   86225753.0044                   21057201.4884   21057193.8704
        54.3004         46.9004
 132815689.4254  103492760.4804                   25273990.4974   25273981.6494
        41.8004         30.9004
 126290155.7984   98407921.4494                   24032232.6474   24032223.4784
        45.2004         36.9004
 108587810.5084   84613905.5984                   20663577.7074   20663570.4604
        53.3004         48.0004
 133740858.9794  104213681.1394                   25450047.8314   25450038.9204
        38.2004         31.0004
 12 10 10 15 48 30.0000000  0 12G01G04G07G08G09G11G15G17G20G26G28G32
 113323774.3024   88304262.1484                   21564799.7194   21564789.2364
        50.9004         46.4004
 131841945.0204  102733999.3374                   25088699.1374   25088685.2944
        40.1004         35.1004
 128277450.5994   99956464.1534                   24410409.9514   24410399.9194
        40.8004         37.1004
 111707851.8534   87045092.4884                   21257308.0694   21257299.6634
        52.6004         46.0004
 128831523.2464  100388196.6514                   24515830.6674   24515821.8134
        39.2004         34.4004
 117722216.0234   91731617.3834                   22401798.6544   22401792.3494
        48.8004         39.5004
 128956160.9964  100485329.0254                   24539554.6484   24539543.6324
        43.8004         42.2004
 110609315.8954   86189111.6954                   21048253.3024   21048245.6754
        53.8004         47.6004
 132733342.7994  103428594.3934                   25258317.2184   25258311.3624
        41.7004         31.8004
 126377361.8554   98475874.0594                   24048826.1144   24048818.0794
        44.5004         38.2004
 108577982.7504   84606247.6014                   20661707.4674   20661700.2894
        53.3004         48.0004
 133678716.8294  104165258.8044                   25438223.4434   25438210.1754
        35.7004         30.6004
 12 10 10 15 49  0.0000000  0 12G01G04G07G08G09G11G15G17G20G26G28G32
 113353569.0574   88327478.8384                   21570469.6054   21570457.5324
        50.3004         47.2004
 131721500.5514  102640146.5724                   25065779.2164   25065766.3664
        41.4004         36.9004
 128396183.4364  100048982.9974                   24433006.6614   24432994.4314
        41.6004         38.7004
 111790918.9554   87109820.0594                   21273115.5174   21273105.9724
        52.2004         46.5004
 128718231.3384  100299917.2794                   24494272.8124   24494264.2224
        41.9004         34.6004
 117801474.6874   91793377.3574                   22416882.1874   22416875.6374
        48.8004         39.6004
 128987658.7964  100509872.7314                   24545546.8534   24545539.2784
        44.7004         40.2004
 110562640.0694   86152740.9354                   21039370.3754   21039363.2614
        53.8004         47.3004
 132651054.3974  103364473.6354                   25242662.8054   25242652.5534
        41.1004         32.5004
 126464849.2294   98544045.9194                   24065474.5794   24065464.9944
        44.0004         38.4004
 108568426.4034   84598801.0874                   20659888.8774   20659882.2224
        53.5004         47.9004
 133616827.0424  104117032.9754                   25426441.4204   25426435.2224
        37.6004         32.0004
 12 10 10 15 49 30.0000000  0 12G01G04G07G08G09G11G15G17G20G26G28G32
 113383950.9864   88351153.0634                   21576250.9404   21576240.5364
        51.4004         45.9004
 131601020.4044  102546266.0084                   25042852.0794   25042839.2364
        41.7004         34.9004
 128514988.8474  100141558.4624                   24455613.6854   24455603.6864
        41.8004         37.6004
 111874455.7754   87174913.6454                   21289011.7534   21289002.8614
        52.7004         45.6004
 128605158.4844  100211808.5554                   24472754.7004   24472746.2864
        40.5004         32.0004
 117881150.7454   91855462.5684                   22432044.2574   22432036.8754
        48.2004         39.8004
 129019614.5144  100534773.2604                   24551627.3984   24551621.1704
        45.8004         39.1004
 110516311.0884   86116640.4304                   21030553.8854   21030547.0044
        54.0004         46.7004
 132568826.9614  103300400.4024                   25227013.8344   25227004.0554
        40.5004         30.0004
 126552614.5274   98612434.3254                   24082176.6864   24082167.4404
        45.2004         38.1004
 108559142.3104   84591566.7254                   20658121.9324   20658115.7814
        53.3004         47.9004
 133555192.3564  104069006.0064                   25414714.3934   25414704.7634
        35.8004         33.0004
 12 10 10 15 50  0.0000000  0 12G01G04G07G08G09G11G15G17G20G26G28G32
 113414918.9414   88375283.9254                   21582144.5434   21582132.5804
        50.7004         46.9004
 131480506.7954  102452359.3944                   25019918.6564   25019905.1804
        41.9004         35.8004
 128633864.3464  100234188.4564                   24478234.7214   24478225.7224
        40.6004         36.5004
 111958460.5914   87240371.9084                   21304997.4124   21304988.9304
        52.5004         45.8004
 128492307.9754  100123873.1154                   24451279.1024   24451270.5304
        41.3004         36.3004
 117961241.6714   91917871.0674                   22447285.1424   22447277.1794
        47.6004         40.2004
 129052026.2404  100560029.1274                   24557796.1104   24557789.9994
        46.1004         39.2004
 110470329.9354   86080810.9624                   21021804.1304   21021797.1734
        53.8004         47.0004
 132486663.5514  103236377.0794                   25211379.8044   25211367.9544
        38.7004         34.1004
 126640654.1654   98681036.5374                   24098930.3954   24098921.2964
        45.3004         37.8004
 108550131.4834   84584545.2984                   20656406.8154   20656400.8284
        53.3004         47.7004
 133493815.6874  104021180.1364                   25403037.2414   25403025.3844
        37.4004         33.0004
 12 10 10 15 50 30.0000000  0 12G01G04G07G08G09G11G15G17G20G26G28G32
 113446471.8884   88399870.6314                   21588148.5844   21588137.5164
        50.9004         46.7004
 131359962.6724  102358429.0524                   24996979.5814   24996963.3364
        39.2004         35.5004
 128752807.5804  100326871.2364                   24500867.3824   24500858.2914
        38.7004         34.3004
 112042931.3484   87306193.2334                   21321071.6074   21321062.9674
        52.2004         45.7004
 128379683.2024  100036113.6344                   24429846.9274   24429839.8744
        40.2004         33.5004
 118041745.3684   91980601.1844                   22462605.4154   22462597.3354
        47.7004         40.1004
 129084892.9784  100585639.5434                   24564049.9484   24564042.5104
        45.1004         39.6004
 110424696.5494   86045252.4914                   21013120.8774   21013112.9874
        53.7004         47.5004
 132404567.2474  103172406.0304                   25195756.6044   25195747.2214
        38.3004         31.9004
 126728965.0284   98749850.0304                   24115734.2314   24115726.6304
        44.5004         38.0004
 108541395.0424   84577737.6804                   20654744.3464   20654737.9604
        53.0004         47.8004
 133432700.1484  103973557.7474                   25391402.6274   25391395.9134
        39.3004         31.5004
 12 10 10 15 51  0.0000000  0 12G01G04G07G08G09G11G15G17G20G26G28G32
 113478608.4984   88424912.1364                   21594263.8784   21594253.1504
        51.0004         46.4004
 131239390.2524  102264476.6374                   24974035.5974   24974022.1734
        41.9004         34.5004
 128871816.1504  100419604.9694                   24523515.1184   24523503.7444
        38.0004         35.3004
 112127865.2774   87372375.4864                   21337233.9304   21337225.2074
        52.1004         45.4004
 128267287.2344   99948532.2894                   24408460.5754   24408448.8994
        39.2004         34.9004
 118122659.1214   92043650.8214                   22478002.2664   22477994.7884
        47.6004         40.4004
 129118212.6534  100611602.9144                   24570391.2384   24570383.1244
        44.7004         40.1004
 110379411.0494   86009965.0884                   21004503.9214   21004496.4564
        54.3004         47.5004
 132322540.9484  103108489.5484                   25180149.7214   25180139.3994
        39.7004         34.7004
 126817543.5704   98818872.1604                   24132589.9164   24132582.7174
        44.5004         37.9004
 108532933.5784   84571144.3304                   20653134.5674   20653127.9114
        53.0004         48.3004
 133371848.2154  103926140.7044                   25379828.1794   25379815.8434
        37.3004         34.0004
 12 10 10 15 51 30.0000000  0 12G01G04G07G08G09G11G15G17G20G26G28G32
 113511327.4924   88450407.4584                   21600490.4374   21600479.7744
        50.8004         46.2004
 131118792.1054  102170504.2664                   24951084.0194   24951072.3594
        42.0004         32.2004
 128990887.6594  100512387.7804                   24546173.0684   24546162.7224
        40.2004         35.0004
 112213259.9594   87438916.7584                   21353484.4664   21353475.0164
        51.8004         45.4004
 128155123.0534   99861131.7854                   24387115.0344   24387106.7974
        41.2004         35.0004
 118203980.1264   92107017.8084                   22493476.8804   22493469.1394
        47.2004         40.0004
 129151983.0904  100637917.5234                   24576816.7024   24576807.8394
        43.2004         39.7004
 110334473.4144   85974948.7524                   20995952.6524   20995944.9354
        53.9004         47.4004
 132240587.6164  103044629.9404                   25164552.4334   25164542.0524
        37.3004         33.8004
 126906386.4134   98888100.2194                   24149498.4714   24149489.1114
        44.6004         37.7004
 108524747.9094   84564765.8854                   20651577.2444   20651570.5624
        53.3004         48.3004
 133311262.9044  103878931.4624                   25368300.2694   25368287.7504
        38.7004         34.3004
 12 10 10 15 52  0.0000000  0 12G01G04G07G08G09G11G15G17G20G26G28G32
 113544627.4964   88476355.5024                   21606826.9064   21606816.0544
        50.7004         46.7004
 130998170.3754  102076513.4484                   24928133.5864   24928118.9724
        42.7004         34.5004
 129110019.3194  100605217.4094                   24568844.3164   24568833.9874
        41.5004         33.0004
 112299113.4154   87505815.5084                   21369821.6434   21369813.1704
        52.2004         45.3004
 128043194.0004   99773914.2034                   24365813.3364   24365806.9244
        39.9004         33.1004
 118285705.5504   92170699.9194                   22509028.4354   22509020.9454
        47.2004         40.1004
 129186202.4304  100664581.9174                   24583330.6624   24583319.7614
        43.3004         40.8004
 110289883.7494   85940203.5694                   20987467.0614   20987459.6544
        53.9004         47.5004
 132158710.0424  102980829.3194                   25148970.5024   25148959.4574
        35.9004         34.2004
 126995489.9944   98957531.4734                   24166453.0494   24166441.2304
        42.7004         39.6004
 108516838.9484   84558603.0504                   20650072.0994   20650065.8064
        53.5004         48.0004
 133250946.8004  103831931.9384                   25356820.9464   25356807.4744
        37.6004         35.5004
 12 10 10 15 52 30.0000000  0 12G01G04G07G08G09G11G15G17G20G26G28G32
 113578507.2244   88502755.2914                   21613273.3734   21613263.4844
        51.0004         46.2004
 130877527.7784  101982506.3904                   24905173.1194   24905160.8024
        42.5004         32.3004
 129229209.1124  100698092.3964                   24591526.1014   24591516.9644
        44.0004         33.8004
 112385423.1774   87573069.8364                   21386246.0104   21386237.3724
        52.4004         45.0004
 127931502.6234   99686882.0814                   24344562.7664   24344553.1284
        41.5004         36.9004
 118367833.0084   92234695.3074                   22524656.4564   22524649.8344
        47.2004         39.6004
 129220868.8914  100691594.6724                   24589927.8024   24589918.4244
        44.5004         40.6004
 110245642.1744   85905729.6154                   20979047.9444   20979040.8044
        54.1004         47.5004
 132076911.5014  102917090.3124                   25133407.2214   25133395.7624
        39.3004         34.7004
 127084850.9154   99027163.2314                   24183457.1494   24183447.5664
        43.2004         38.0004
 108509207.7714   84552656.6754                   20648620.0054   20648613.2734
        53.4004         48.2004
 133190902.8144  103785144.5364                   25345391.9794   25345382.7154
        39.6004         33.0004
 12 10 10 15 53  0.0000000  0 12G01G04G07G08G09G11G15G17G20G26G28G32
 113612965.3214   88529605.7424                   21619830.6354   21619820.7354
        50.8004         46.1004
 130756866.5074  101888484.8464                   24882213.4734   24882199.7874
        43.4004         33.1004
 129348454.6554  100791010.6744                   24614216.7184   24614206.6414
        42.5004         35.5004
 112472186.8494   87640677.8484                   21402756.1924   21402747.4774
        52.1004         44.9004
 127820052.5064   99600037.8394                   24323352.1004   24323343.9534
        38.6004         31.9004
 118450359.9334   92299001.9634                   22540360.5464   22540354.2724
        46.9004         39.8004
 129255980.6184  100718954.4154                   24596608.0134   24596597.6834
        42.3004         40.6004
 110201748.8254   85871527.0144                   20970695.1614   20970687.6094
        53.8004         47.8004
 131995195.0834  102853415.2584                   25117855.3434   25117845.9954
        39.5004         35.9004
 127174465.5534   99096992.7124                   24200511.0804   24200501.0964
        43.5004         37.6004
 108501855.1154   84546927.3334                   20647220.8104   20647213.9464
        53.3004         48.4004
 133131133.5784  103738571.1014                   25334019.2634   25334009.7764
        39.4004         31.4004
 12 10 10 15 53 30.0000000  0 12G01G04G07G08G09G11G15G17G20G26G28G32
 113648000.6204   88556905.9714                   21626497.3614   21626487.5634
        50.7004         45.9004
 130636189.3854  101794450.8924                   24859247.9304   24859235.5764
        42.6004         32.6004
 129467753.0224  100883970.2434                   24636921.1444   24636906.9364
        41.2004         36.9004
 112559402.3914   87708637.9624                   21419352.6704   21419344.7864
        52.3004         44.7004
 127708846.7784   99513384.0654                   24302193.7134   24302183.4664
        41.1004         37.2004
 118533283.9894   92363618.0814                   22556140.0184   22556134.6804
        47.0004         38.9004
 129291535.7744  100746659.6764                   24603374.8474   24603365.0604
        43.1004         40.0004
 110158203.8814   85837595.8914                   20962408.9564   20962402.0144
        54.1004         47.7004
 131913564.1484  102789806.8764                   25102320.6254   25102312.1614
        39.4004         34.7004
 127264330.7724   99167017.4304                   24217611.6064   24217601.8584
        43.3004         38.3004
 108494781.8164   84541415.6684                   20645874.5554   20645868.1714
        53.4004         48.3004
 133071642.2724  103692214.3104                   25322697.7834   25322688.8764
        40.5004         33.2004
 12 10 10 15 54  0.0000000  0 12G01G04G07G08G09G11G15G17G20G26G28G32
 113683611.3744   88584654.6154                   21633273.6794   21633264.4294
        50.7004         45.6004
 130515498.3594  101700406.1274                   24836281.3244   24836267.5614
        42.6004         35.5004
 129587101.7894  100976968.9754                   24659631.5084   24659618.9494
        41.7004         35.2004
 112647066.9404   87776947.9614                   21436035.5364   21436027.6574
        52.6004         44.9004
 127597888.1514   99426922.8434                   24281078.3714   24281067.7294
        39.3004         36.3004
 118616602.0554   92428541.2294                   22571994.5334   22571988.6934
        46.7004         38.6004
 129327531.8854  100774708.5704                   24610224.2004   24610215.5054
        44.5004         40.2004
 110115007.0844   85803936.0454                   20954189.1724   20954181.9444
        54.1004         47.9004
 131832020.6144  102726266.6794                   25086807.1664   25086792.5364
        37.9004         34.8004
 127354442.6894   99237234.3744                   24234759.0554   24234749.1664
        43.0004         38.4004
 108487988.6244   84536122.2664                   20644581.8944   20644575.7374
        53.8004         47.6004
 133012431.4014  103646076.0024                   25311433.1874   25311421.2864
        40.3004         33.5004
 12 10 10 15 54 30.0000000  0 12G01G04G07G08G09G11G15G17G20G26G28G32
 113719796.5164   88612850.8294                   21640159.7664   21640149.4314
        50.2004         46.2004
 130394796.3154  101606352.7794                   24813312.9924   24813300.3094
        44.3004         35.6004
 129706498.6694  101070005.2204                   24682352.8114   24682339.3644
        40.9004         35.9004
 112735178.6804   87845606.4104                   21452801.9044   21452793.9954
        52.0004         44.7004
 127487179.9434   99340656.7074                   24260010.0694   24260002.2244
        42.6004         34.6004
 118700311.9364   92493769.6744                   22587925.6024   22587918.3074
        46.1004         39.5004
 129363967.8114  100803100.1894                   24617157.6314   24617148.2504
        43.1004         40.2004
 110072159.1514   85770548.0474                   20946035.7314   20946028.0874
        53.9004         48.2004
 131750568.2374  102662797.4404                   25071304.5104   25071294.4664
        39.6004         33.9004
 127444798.2054   99307641.1494                   24251952.9114   24251943.9354
        43.3004         37.5004
 108481476.8714   84531048.1684                   20643342.6744   20643336.6574
        53.3004         47.7004
 132953503.9844  103600158.5804                   25300218.1214   25300208.4694
        39.9004         33.8004
 12 10 10 15 55  0.0000000  0 12G01G04G07G08G09G11G15G17G20G26G28G32
 113756554.3164   88641493.2604                   21647155.6044   21647143.9284
        50.2004         46.2004
 130274085.6184  101512292.6894                   24790341.9494   24790330.1504
        45.4004         35.9004
 129825941.2074  101163077.0494                   24705080.2634   24705069.1764
        40.8004         34.7004
 112823734.9934   87914611.2864                   21469653.9274   21469645.7004
        52.3004         44.6004
 127376725.1394   99254588.1144                   24238993.4834   24238981.0964
        38.5004         36.9004
 118784410.5374   92559301.0314                   22603929.1814   22603922.1574
        46.4004         39.8004
 129400841.2784  100831832.7254                   24624173.9264   24624164.0954
        42.7004         39.7004
 110029659.7094   85737431.6024                   20937948.7194   20937940.2344
        54.1004         48.0004
 131669209.6984  102599401.3244                   25055821.6094   25055812.4194
        40.0004         33.5004
 127535393.6044   99378234.8244                   24269194.6674   24269184.5784
        44.3004         36.7004
 108475246.8794   84526193.6324                   20642157.5454   20642150.6954
        53.2004         48.2004
 132894862.3634  103554463.8834                   25289059.7364   25289048.5834
        39.8004         35.9004
 12 10 10 15 55 30.0000000  0 12G01G04G07G08G09G11G15G17G20G26G28G32
 113793883.5964   88670581.0014                   21654259.1594   21654247.4074
        50.2004         46.5004
 130153368.7654  101418227.7814                   24767370.7424   24767358.3634
        45.6004         35.9004
 129945427.0874  101256182.7204                   24727820.1874   24727804.9164
        40.3004         34.8004
 112912733.7544   87983960.9064                   21486590.4444   21486582.0354
        52.0004         44.8004
 127266527.4714   99168719.8034                   24218018.7454   24218013.1164
        42.4004         32.0004
 118868895.7384   92625133.6244                   22620007.6284   22619998.9144
        46.4004         39.4004
 129438150.6084  100860904.8284                   24631273.4444   24631263.6524
        42.2004         40.0004
 109987508.9174   85704586.8394                   20929927.5894   20929919.1434
        53.8004         48.4004
 131587948.2774  102536080.8604                   25040358.5154   25040348.3524
        38.5004         32.9004
 127626225.6814   99449012.9364                   24286479.4384   24286470.3874
        44.5004         37.4004
 108469299.8624   84521559.5864                   20641025.5524   20641019.3084
        53.3004         48.1004
 132836509.6924  103508994.3254                   25277955.7924   25277945.0844
        39.2004         34.8004
 12 10 10 15 56  0.0000000  0 12G01G04G07G08G09G11G15G17G20G26G28G32
 113831782.6934   88700112.7654                   21661471.0414   21661460.1134
        50.7004         45.9004
 130032648.2354  101324160.0054                   24744397.4934   24744385.6784
        44.3004         34.8004
 130064953.8704  101349320.1854                   24750563.0114   24750553.2404
        42.4004         32.5004
 113002172.0004   88053653.0014                   21503609.0674   21503601.0974
        52.2004         43.7004
 127156589.5344   99083053.9544                   24197102.6974   24197090.2444
        38.7004         37.4004
 118953764.5554   92691265.1274                   22636157.1044   22636148.7074
        46.5004         39.5004
 129475893.0904  100890314.5294                   24638454.7484   24638446.0784
        42.0004         37.1004
 109945706.5494   85672013.5704                   20921972.3564   20921964.6374
        54.1004         47.8004
 131506786.6754  102472838.2544                   25024912.1374   25024903.9004
        38.5004         34.9004
 127717290.7274   99519972.5804                   24303809.1364   24303801.5614
        46.3004         36.2004
 108463636.5214   84517146.5914                   20639947.8904   20639941.6684
        53.7004         47.9004
 132778448.3774  103463751.8104                   25266906.6654   25266894.8324
        39.8004         36.4004
 12 10 10 15 56 30.0000000  0 12G01G04G07G08G09G11G15G17G20G26G28G32
 113870250.4224   88730087.6194                   21668791.5094   21668780.8454
        50.6004         46.5004
 129911926.7224  101230091.4724                   24721425.1054   24721411.7694
        42.9004         34.3004
 130184519.3094  101442487.8344                   24773318.5394   24773304.5744
        42.2004         34.0004
 113092047.8584   88123686.0934                   21520711.7084   21520703.7114
        51.6004         44.2004
 127046915.0384   98997593.3694                   24176230.1984   24176219.3824
        40.6004         36.2004
 119039014.7704   92757693.8234                   22652378.8454   22652369.8994
        46.2004         39.2004
 129514067.4324  100920060.7504                   24645719.3734   24645709.6634
        40.9004         40.4004
 109904253.0944   85639712.1774                   20914083.5254   20914076.9884
        54.0004         48.0004
 131425728.1344  102409675.9494                   25009487.2054   25009478.2764
        38.8004         33.5004
 127808585.6514   99591111.3744                   24321181.1194   24321172.2734
        45.0004         36.8004
 108458258.0914   84512955.6004                   20638924.6104   20638918.8114
        54.3004         47.3004
 132720681.6214  103418738.8424                   25255912.0414   25255900.2404
        38.5004         33.0004
 12 10 10 15 57  0.0000000  0 12G01G04G07G08G09G11G15G17G20G26G28G32
 113909284.9844   88760504.1504                   21676218.8984   21676208.3714
        50.3004         46.4004
 129791206.3594  101136023.7984                   24698451.5874   24698438.9214
        42.8004         30.6004
 130304120.6404  101535683.3934                   24796077.9564   24796066.3064
        43.6004         33.6004
 113182358.4024   88194057.8974                   21537897.4154   21537889.4084
        51.8004         43.9004
 126937506.4204   98912339.8644                   24155410.8264   24155402.2674
        41.1004         36.8004
 119124643.3234   92824417.3394                   22668672.4994   22668664.4204
        45.5004         39.7004
 129552671.2434  100950141.5674                   24653066.5614   24653057.3794
        42.8004         40.0004
 109863148.4024   85607682.5374                   20906261.1924   20906254.9454
        54.0004         47.8004
 131344775.6694  102346596.2004                   24994082.5504   24994072.7514
        37.6004         34.0004
 127900106.6154   99662426.2914                   24338598.1294   24338588.2784
        45.1004         36.5004
 108453165.0324   84508986.9744                   20637955.3234   20637948.9384
        53.6004         48.0004
 132663211.8784  103373957.2544                   25244975.5224   25244966.4474
        39.0004         34.7004
 12 10 10 15 57 30.0000000  0 12G01G04G07G08G09G11G15G17G20G26G28G32
 113948885.0334   88791361.3204                   21683754.2694   21683744.6774
        50.4004         45.4004
 129670489.9954  101041959.2254                   24675481.8514   24675468.9654
        44.3004         30.9004
 130423755.5554  101628905.1834                   24818843.1384   24818832.5514
        42.5004         33.1004
 113273101.3044   88264766.6124                   21555165.7174   21555157.2444
        51.8004         43.9004
 126828367.3874   98827296.5254                   24134642.6564   24134632.4564
        40.7004         35.5004
 119210647.7394   92891433.7424                   22685037.6834   22685032.0024
        46.5004         38.8004
 129591702.6694  100980555.6454                   24660493.7974   24660484.1994
        42.9004         39.6004
 109822392.6024   85575924.7694                   20898505.5514   20898498.6344
        53.7004         47.7004
 131263932.1394  102283601.3374                   24978700.2114   24978687.4394
        35.9004         34.6004
 127991850.5014   99733914.9284                   24356056.5284   24356044.7414
        44.0004         37.2004
 108448358.5014   84505241.6284                   20637040.6784   20637034.2164
        53.3004         48.4004
 132606042.0164  103329409.3304                   25234097.7524   25234085.6134
        37.8004         35.7004
 12 10 10 15 58  0.0000000  0 12G01G04G07G08G09G11G15G17G20G26G28G32
 113989048.8314   88822657.7874                   21691396.5664   21691386.0894
        49.7004         45.7004
 129549780.0894  100947899.7064                   24652510.3754   24652499.1254
        44.6004         33.9004
 130543421.2844  101722150.9574                   24841616.7054   24841604.3174
        42.1004         33.9004
 113364274.0864   88335810.2784                   21572515.2774   21572507.4514
        51.9004         43.7004
 126719500.7904   98742465.3964                   24113923.7224   24113917.9014
        41.1004         33.7004
 119297025.4194   92958740.9924                   22701476.0124   22701470.0764
        46.9004         38.1004
 129631159.5294  101011301.1994                   24667998.6064   24667990.7454
        41.1004         36.3004
 109781985.6204   85544438.8074                   20890817.1534   20890809.8644
        53.8004         47.9004
 131183200.6564  102220693.9804                   24963337.0224   24963326.0214
        36.9004         33.5004
 128083813.5744   99805574.3254                   24373556.0104   24373545.3774
        43.8004         37.5004
 108443839.1124   84501720.0224                   20636180.6914   20636173.9064
        53.3004         48.3004
 132549174.5214  103285097.1184                   25223276.0364   25223264.3734
        38.0004         35.8004
 12 10 10 15 58 30.0000000  0 12G01G04G07G08G09G11G15G17G20G26G28G32
 114029774.9314   88854392.4134                   21699146.8524   21699135.7494
        49.6004         46.1004
 129429078.7514  100853846.9654                   24629540.6254   24629528.0834
        43.3004         36.9004
 130663115.8764  101815419.2444                   24864393.0064   24864379.0204
        40.6004         36.1004
 113455874.1554   88407186.9054                   21589946.0434   21589938.0854
        52.2004         43.9004
 126610909.8634   98657849.1654                   24093262.3914   24093252.8934
        39.8004         36.1004
 119383773.4444   93026336.8284                   22717983.5974   22717975.4604
        45.8004         39.0004
 129671039.7254  101042376.6344                   24675588.1134   24675580.9494
        41.8004         36.4004
 109741927.7604   85513224.8924                   20883194.8014   20883186.4534
        53.6004         48.5004
 131102584.3124  102157876.1974                   24947995.4114   24947986.3524
        40.1004         33.8004
 128175992.5614   99877401.9964                   24391097.8244   24391085.9644
        43.5004         38.1004
 108439607.9244   84498422.9884                   20635375.2764   20635369.0604
        53.4004         47.9004
 132492612.3004  103241022.7004                   25212512.1414   25212500.8054
        38.0004         37.7004
 12 10 10 15 59  0.0000000  0 12G01G04G07G08G09G11G15G17G20G26G28G32
 114071061.9214   88886564.0874                   21707004.0204   21706992.9054
        50.0004         45.6004
 129308389.2114  100759803.4234                   24606573.9384   24606560.4294
        42.6004         38.0004
 130782836.9424  101908708.1644                   24887174.1634   24887160.5594
        38.7004         35.7004
 113547899.2614   88478894.7324                   21607457.7464   21607449.7464
        52.0004         43.3004
 126502597.8784   98573450.2334                   24072651.8094   24072640.2604
        42.2004         36.0004
 119470889.5264   93094219.4464                   22734561.0004   22734555.1674
        46.6004         38.3004
 129711341.7594  101073780.8094                   24683259.5454   24683250.1734
        42.2004         37.3004
 109702218.9114   85482282.9354                   20875638.9594   20875630.5984
        53.8004         48.2004
 131022086.5044  102095150.8104                   24932676.3144   24932668.7224
        41.9004         31.8004
 128268384.0864   99949395.2244                   24408678.9314   24408668.5144
        43.9004         37.8004
 108435665.9354   84495351.2994                   20634625.0244   20634618.7354
        53.0004         48.3004
 132436358.1824  103197188.3954                   25201808.6434   25201795.5084
        38.2004         36.9004
 12 10 10 15 59 30.0000000  0 12G01G04G07G08G09G11G15G17G20G26G28G32
 114112907.8594   88919171.3144                   21714967.1664   21714956.0984
        50.1004         46.5004
 129187713.5564  100665770.7144                   24583611.8624   24583597.5004
        43.1004         38.3004
 130902581.8284  102002015.6664                   24909961.0874   24909947.1464
        38.8004         35.5004
 113640346.9264   88550931.8124                   21625050.4394   21625042.0694
        52.1004         44.0004
 126394567.7094   98489270.9484                   24052094.5344   24052084.0264
        40.3004         38.0004
 119558370.6484   93162386.5074                   22751209.9314   22751201.8034
        46.3004         39.5004
 129752062.8184  101105511.4254                   24691008.3654   24690999.6664
        42.8004         37.7004
 109662858.7364   85451612.6824                   20868148.6364   20868140.6484
        53.9004         48.5004
 130941709.6544  102032519.5944                   24917380.9264   24917373.2174
        42.9004         32.7004
 128360984.4504  100021551.2154                   24426299.8394   24426289.9144
        43.5004         37.2004
 108432013.6334   84492505.3424                   20633930.1004   20633923.3144
        53.0004         48.4004
 132380414.5634  103153595.9694                   25191162.3724   25191152.8734
        39.6004         34.7004
 12 10 10 16  0  0.0000000  0 12G01G04G07G08G09G11G15G17G20G26G28G32
 114155311.4104   88952213.0384                   21723036.7514   21723025.9334
        50.3004         45.8004
 129067054.4724  100571750.8944                   24560650.1474   24560637.9394
        43.7004         36.9004
 131022348.2474  102095339.8784                   24932753.6854   24932737.8444
        39.4004         34.8004
 113733214.5904   88623296.1584                   21642722.2624   21642714.7584
        52.2004         43.2004
 126286822.9844   98405314.0654                   24031588.1624   24031578.9384
        40.3004         33.8004
 119646214.5684   93230836.2884                   22767926.0764   22767917.1784
        45.9004         39.4004
 129793201.1654  101137567.2974                   24698837.0424   24698829.2034
        42.9004         36.8004
 109623847.6894   85421214.4614                   20860724.3854   20860717.1164
        53.9004         47.8004
 130861456.9594  101969985.1664                   24902111.4544   24902100.4664
        42.4004         34.5004
 128453790.4224  100093867.4124                   24443960.6354   24443949.0014
        42.9004         37.3004
 108428652.1694   84489886.0124                   20633290.3974   20633284.3134
        53.4004         47.7004
 132324784.5024  103110247.8854                   25180576.3084   25180564.9964
        39.3004         34.4004
