     2.11           OBSERVATION DATA    G (GPS)             RINEX VERSION / TYPE
teqc  2013Nov15     NGS Web User        20150520 20:16:33UTCPGM / RUN BY / DATE
Solaris 5.10|UltraSparc IIIi|cc -m64 SS12.1|=+|*Sparc       COMMENT
teqc  2012Jun6      NOAA/NOS/NGS/CORS   20121011 00:43:04UTCCOMMENT
Solaris x86 5.10|AMD64|cc SC5.8 -xarch=amd64|=+|=+          COMMENT
teqc  2012Jun6      NOAA/NOS/NGS/CORS   20121011 00:42:49UTCCOMMENT
     2.10           OBSERVATION DATA    G (GPS)             COMMENT
NSTB2RINEX 2.06     NOAA/NOS/NGS/CORS   20121011 00:42:27UTCCOMMENT
Forced Modulo Decimation to 30 seconds                      COMMENT
ZMP1                                                        MARKER NAME
Tom McHugh          Federal Aviation Administration         OBSERVER / AGENCY
7BC1                NOV WAASGII         2.003               REC # / TYPE / VERS
unknown             MPL_WAAS_2225NW NONE                    ANT # / TYPE
  -249977.5300 -4539298.5130  4458954.8020                  APPROX POSITION XYZ
        0.0000        0.0000        0.0000                  ANTENNA: DELTA H/E/N
     1     1                                                WAVELENGTH FACT L1/2
     7    L1    L2    P1    P2    C1    S1    S2            # / TYPES OF OBSERV
    30.0000                                                 INTERVAL
teqc windowed: start @ 2012 Oct 10 16:00:00.000             COMMENT
teqc windowed:  end  @ 2012 Oct 10 17:00:00.000             COMMENT
teqc edited: all GLONASS satellites excluded                COMMENT
  2012    10    10    16     0    0.0000000     GPS         TIME OF FIRST OBS
                                                            END OF HEADER
 12 10 10 16  0  0.0000000  0 12G01G04G07G08G09G11G15G17G20G26G28G32
 114155311.4104   88952213.0384                   21723036.7514   21723025.9334
        50.3004         45.8004
 129067054.4724  100571750.8944                   24560650.1474   24560637.9394
        43.7004         36.9004
 131022348.2474  102095339.8784                   24932753.6854   24932737.8444
        39.4004         34.8004
 113733214.5904   88623296.1584                   21642722.2624   21642714.7584
        52.2004         43.2004
 126286822.9844   98405314.0654                   24031588.1624   24031578.9384
        40.3004         33.8004
 119646214.5684   93230836.2884                   22767926.0764   22767917.1784
        45.9004         39.4004
 129793201.1654  101137567.2974                   24698837.0424   24698829.2034
        42.9004         36.8004
 109623847.6894   85421214.4614                   20860724.3854   20860717.1164
        53.9004         47.8004
 130861456.9594  101969985.1664                   24902111.4544   24902100.4664
        42.4004         34.5004
 128453790.4224  100093867.4124                   24443960.6354   24443949.0014
        42.9004         37.3004
 108428652.1694   84489886.0124                   20633290.3974   20633284.3134
        53.4004         47.7004
 132324784.5024  103110247.8854                   25180576.3084   25180564.9964
        39.3004         34.4004
 12 10 10 16  0 30.0000000  0 12G01G04G07G08G09G11G15G17G20G26G28G32
 114198270.6844   88985687.7904                   21731211.3644   21731199.9204
        49.8004         46.3004
 128946414.2834  100477745.7874                   24537692.6594   24537680.6234
        43.0004         37.1004
 131142133.5834  102188678.8824                   24955549.2274   24955535.0324
        39.8004         31.6004
 113826499.2944   88695985.4954                   21660474.4814   21660466.2924
        52.3004         43.7004
 126179366.5074   98321581.7294                   24011140.6614   24011131.6504
        40.5004         38.0004
 119734418.3724   93299566.4824                   22784710.5724   22784703.3644
        46.5004         38.1004
 129834754.6514  101169946.5724                   24706744.7714   24706730.5364
        39.1004         40.5004
 109585185.3964   85391088.0044                   20853367.1334   20853359.7274
        53.9004         48.0004
 130781331.3494  101907549.8194                   24886861.9614   24886853.6524
        42.7004         34.8004
 128546798.3304  100166340.9844                   24461660.0174   24461649.9944
        43.9004         36.7004
 108425582.0724   84487493.7274                   20632706.1144   20632700.2964
        53.6004         47.7004
 132269470.3824  103067146.0384                   25170047.0724   25170038.9664
        38.9004         33.6004
 12 10 10 16  1  0.0000000  0 12G01G04G07G08G09G11G15G17G20G26G28G32
 114241784.2924   89019594.4784                   21739491.4314   21739479.9774
        49.2004         46.5004
 128825795.8594  100383757.6934                   24514740.7904   24514725.7914
        41.0004         37.8004
 131261935.7394  102282031.0764                   24978345.0784   24978333.5684
        41.0004         34.1004
 113920198.9764   88768998.1784                   21678305.0504   21678296.8084
        51.6004         43.9004
 126072201.9634   98238076.9524                   23990744.9874   23990739.5024
        41.8004         33.4004
 119822979.3634   93368575.0004                   22801562.2924   22801555.5064
        45.9004         38.1004
 129876720.8754  101202647.4484                   24714730.5394   24714721.1204
        42.3004         39.0004
 109546872.0354   85361233.4384                   20846076.1754   20846069.1304
        53.7004         48.4004
 130701336.1504  101845216.0094                   24871639.1274   24871629.8304
        40.6004         34.8004
 128640005.0324  100238969.4544                   24479395.5784   24479384.9444
        43.1004         37.3004
 108422804.7714   84485329.5904                   20632177.7534   20632171.4884
        53.3004         47.9004
 132214475.2284  103024292.7374                   25159582.1714   25159576.0544
        40.3004         33.2004
 12 10 10 16  1 30.0000000  0 12G01G04G07G08G09G11G15G17G20G26G28G32
 114285850.1864   89053931.5114                   21747876.8754   21747865.9384
        49.6004         45.6004
 128705201.2324  100289788.1174                   24491791.1334   24491777.5804
        42.0004         36.4004
 131381751.6484  102375393.8424                   25001141.2334   25001133.7794
        41.2004         28.8004
 114014310.6714   88842331.8984                   21696213.1014   21696205.3914
        51.3004         42.8004
 125965331.8364   98154801.5224                   23970413.5774   23970402.3424
        41.5004         36.6004
 119911894.6994   93437859.6444                   22818482.5024   22818476.0384
        45.8004         37.7004
 129919097.2304  101235667.9794                   24722795.4184   24722786.5774
        43.5004         38.6004
 109508907.4224   85331650.6274                   20838851.8244   20838844.9544
        54.2004         48.0004
 130621473.9544  101782985.9134                   24856443.1724   24856433.0104
        39.6004         35.4004
 128733406.7494  100311749.8744                   24497171.5874   24497161.0854
        44.2004         37.1004
 108420320.5494   84483393.8274                   20631705.0654   20631698.3284
        53.1004         48.0004
 132159801.1544  102981689.5184                   25149180.1674   25149171.7134
        40.0004         33.8004
 12 10 10 16  2  0.0000000  0 12G01G04G07G08G09G11G15G17G20G26G28G32
 114330466.9244   89088697.7984                   21756366.5324   21756356.5894
        49.9004         44.7004
 128584633.2384  100195839.2504                   24468848.1394   24468835.5324
        44.0004         34.4004
 131501579.4244  102468766.0264                   25023951.0054   25023934.3094
        40.0004         35.7004
 114108832.1084   88915984.9034                   21714200.1124   21714191.8914
        51.1004         42.7004
 125858759.5854   98071758.2924                   23950132.2114   23950118.7004
        38.2004         38.6004
 120001161.9844   93507418.5434                   22835468.8534   22835462.7824
        45.8004         38.2004
 129961882.7664  101269007.3054                   24730937.0824   24730926.6524
        41.3004         39.3004
 109471292.0454   85302339.9444                   20831693.8184   20831686.2484
        53.9004         48.3004
 130541748.2614  101720862.1884                   24841272.1864   24841259.8044
        37.5004         34.0004
 128827000.3184  100384679.7864                   24514981.0114   24514969.0794
        43.0004         38.1004
 108418130.8864   84481687.5914                   20631288.6594   20631281.6744
        53.3004         48.4004
 132105451.3164  102939339.0654                   25138837.9504   25138827.8644
        39.9004         36.3004
 12 10 10 16  2 30.0000000  0 12G01G04G07G08G09G11G15G17G20G26G28G32
 114375632.7944   89123891.9704                   21764961.4704   21764950.7134
        49.6004         45.3004
 128464094.4624  100101913.1244                   24445909.6794   24445896.5244
        44.6004         34.4004
 131621416.7354  102562145.5114                   25046749.5924   25046740.8644
        40.8004         31.6004
 114203760.6664   88989955.1354                   21732264.2384   21732257.0714
        51.7004         42.3004
 125752488.3844   97988949.5924                   23929910.1094   23929898.3954
        41.1004         37.3004
 120090778.4584   93577249.5384                   22852522.7204   22852515.2594
        45.3004         39.0004
 130005075.0284  101302663.5314                   24739155.2234   24739148.7684
        43.9004         37.3004
 109434025.4284   85273301.0244                   20824602.8704   20824595.0424
        54.3004         48.4004
 130462161.9534  101658847.0154                   24826127.9364   24826115.4974
        38.1004         34.4004
 128920782.1894  100457756.4394                   24532827.8844   24532819.1004
        45.2004         36.0004
 108416235.9974   84480211.0464                   20630928.1294   20630921.6254
        53.5004         48.5004
 132051428.1994  102897243.1244                   25128557.7864   25128546.5944
        38.3004         36.5004
 12 10 10 16  3  0.0000000  0 12G01G04G07G08G09G11G15G17G20G26G28G32
 114421346.0024   89159512.6384                   21773660.5524   21773651.0264
        49.9004         45.4004
 128343587.4914  100008011.7534                   24422976.8264   24422963.6244
        43.5004         36.9004
 131741261.1814  102655530.6954                   25069558.7584   25069547.0254
        41.6004         31.8004
 114299093.8544   89064240.6804                   21750405.9164   21750398.3794
        51.8004         43.0004
 125646521.2464   97906377.8404                   23909744.0154   23909736.0464
        43.4004         36.3004
 120180741.4224   93647350.5194                   22869642.6864   22869633.6054
        44.3004         38.9004
 130048671.4084  101336634.6934                   24747451.2284   24747444.7714
        43.0004         37.0004
 109397107.5134   85244533.8194                   20817577.8204   20817570.0944
        54.3004         48.8004
 130382717.6714  101596942.4804                   24811006.7544   24811000.6214
        39.5004         33.6004
 129014749.0094  100530977.1944                   24550708.3654   24550698.3324
        43.5004         36.6004
 108414637.1394   84478965.1784                   20630623.7604   20630617.6604
        53.6004         48.1004
 131997734.3644  102855403.8274                   25118339.7344   25118329.9024
        39.5004         35.4004
 12 10 10 16  3 30.0000000  0 12G01G04G07G08G09G11G15G17G20G26G28G32
 114467604.8684   89195558.4994                   21782463.7084   21782454.0104
        50.2004         45.0004
 128223114.7834   99914137.1034                   24400051.7714   24400038.4814
        43.4004         37.1004
 131861110.0964  102748919.1654                   25092364.6744   25092353.9584
        37.6004         34.0004
 114394829.1594   89138839.5534                   21768624.4484   21768615.8464
        51.8004         43.5004
 125540861.5354   97824045.5794                   23889637.1834   23889626.9454
        41.6004         35.2004
 120271048.7764   93717719.8164                   22886829.2334   22886819.1754
        44.3004         39.4004
 130092669.8944  101370919.1974                   24755823.4964   24755815.8654
        42.2004         36.5004
 109360538.3524   85216038.3694                   20810618.7294   20810611.3784
        54.6004         48.7004
 130303419.2504  101535151.6334                   24795916.9314   24795909.4584
        40.6004         33.6004
 129108897.3024  100604339.4124                   24568624.0444   24568613.7364
        43.9004         37.5004
 108413335.1674   84477950.6434                   20630376.1544   20630369.4354
        53.6004         48.7004
 131944372.6834  102813823.2964                   25108186.2094   25108176.8774
        41.3004         35.2004
 12 10 10 16  4  0.0000000  0 12G01G04G07G08G09G11G15G17G20G26G28G32
 114514407.4664   89232028.0214                   21791370.5744   21791360.1404
        50.2004         45.3004
 128102678.7084   99820291.0284                   24377133.3814   24377120.4584
        42.9004         39.0004
 131980961.1184  102842309.4754                   25115168.9764   25115158.2064
        39.6004         28.7004
 114490963.7734   89213749.5684                   21786918.4434   21786909.8734
        51.9004         43.3004
 125435512.2794   97741955.2764                   23869591.3914   23869580.2444
        41.7004         35.5004
 120361697.2434   93788354.9344                   22904079.5484   22904069.8034
        44.4004         39.1004
 130137067.9264  101405515.0504                   24764275.1374   24764267.1364
        43.3004         37.5004
 109324317.8154   85187814.5744                   20803725.7894   20803719.1104
        54.8004         48.4004
 130224269.1314  101473476.2964                   24780855.5234   24780847.3684
        42.1004         32.5004
 129203223.5024  100677840.1694                   24586574.7164   24586561.9194
        42.3004         37.8004
 108412330.8334   84477168.0384                   20630185.4384   20630178.0434
        53.1004         48.7004
 131891345.4284  102772503.3994                   25098096.5124   25098083.7224
        39.0004         37.3004
 12 10 10 16  4 30.0000000  0 12G01G04G07G08G09G11G15G17G20G26G28G32
 114561752.2674   89268920.0464                   21800379.5294   21800369.8844
        50.3004         45.2004
 127982282.1354   99726475.7414                   24354223.2454   24354210.7844
        41.7004         38.9004
 132100812.2694  102935699.6014                   25137979.1204   25137967.4154
        37.6004         34.5004
 114587494.9624   89288968.6194                   21805287.5034   21805278.5964
        51.7004         43.3004
 125330476.9944   97660109.6864                   23849604.8694   23849593.8494
        42.6004         38.1004
 120452684.1854   93859253.8054                   22921391.6004   22921385.0134
        45.1004         37.6004
 130181863.9604  101440420.9714                   24772798.7634   24772789.2694
        41.9004         39.9004
 109288446.0704   85159862.5684                   20796899.2974   20796892.0664
        54.3004         48.3004
 130145270.7234  101411919.1544                   24765823.2364   24765813.8094
        42.6004         34.5004
 129297724.4624  100751477.1694                   24604557.1394   24604547.6904
        43.6004         37.4004
 108411625.2724   84476618.2454                   20630050.9484   20630043.9764
        53.6004         48.4004
 131838655.6114  102731446.4084                   25088067.1254   25088059.5154
        40.6004         36.3004
 12 10 10 16  5  0.0000000  0 12G01G04G07G08G09G11G15G17G20G26G28G32
 114609637.2784   89306233.0254                   21809491.9444   21809481.4404
        50.0004         45.6004
 127861927.4264   99632693.0984                   24331320.4614   24331307.7234
        42.4004         38.5004
 132220661.0284  103029087.9814                   25160785.6584   25160774.9684
        41.4004         27.5004
 114684420.2614   89364494.7544                   21823731.8964   21823724.3944
        52.7004         43.3004
 125225758.8974   97578511.2304                   23829676.1454   23829667.9884
        44.0004         37.7004
 120544006.8364   93930414.3154                   22938768.6504   22938764.3674
        46.5004         36.3004
 130227055.4004  101475635.0024                   24781397.5434   24781388.5524
        41.8004         38.7004
 109252923.1074   85132182.3344                   20790139.4324   20790131.9374
        54.3004         48.6004
 130066426.9764  101350482.5534                   24750819.5874   24750811.2744
        43.2004         32.9004
 129392396.5724  100825247.5034                   24622574.4964   24622561.0994
        42.6004         39.0004
 108411219.2534   84476301.8554                   20629973.6804   20629966.7954
        53.6004         48.6004
 131786305.6334  102690654.2314                   25078106.8524   25078096.9284
        39.7004         37.0004
 12 10 10 16  5 30.0000000  0 12G01G04G07G08G09G11G15G17G20G26G28G32
 114658060.8244   89343965.6374                   21818706.8384   21818695.2934
        49.7004         45.7004
 127741617.5724   99538945.3274                   24308424.9754   24308413.5984
        43.7004         36.3004
 132340505.0004  103122472.8144                   25183589.9874   25183575.9164
        36.9004         34.0004
 114781737.1494   89440326.0254                   21842250.6434   21842242.2494
        51.6004         42.8004
 125121361.0754   97497162.3274                   23809809.4864   23809801.0164
        44.2004         37.7004
 120635662.8764   94001834.5844                   22956210.2004   22956202.5384
        44.2004         37.6004
 130272640.0644  101511155.4454                   24790069.9144   24790063.2104
        41.8004         36.7004
 109217748.5504   85104773.5904                   20783445.5684   20783438.8764
        54.5004         48.2004
 129987740.7924  101289168.7174                   24735845.9014   24735836.8894
        42.5004         33.9004
 129487236.5054  100899148.5954                   24640622.0374   24640609.6564
        43.3004         38.7004
 108411113.4744   84476219.4194                   20629953.4204   20629946.4724
        53.5004         48.3004
 131734298.0724  102650128.8664                   25068209.0204   25068201.8954
        41.8004         35.4004
 12 10 10 16  6  0.0000000  0 12G01G04G07G08G09G11G15G17G20G26G28G32
 114707020.6034   89382116.1004                   21828023.1814   21828011.7274
        49.0004         46.1004
 127621354.4714   99445233.9884                   24285538.3534   24285529.0014
        44.2004         34.0004
 132460341.2764  103215851.4264                   25206392.8274   25206383.5084
        41.3004         31.7004
 114879442.4074   89516459.9214                   21860843.6864   21860834.4544
        50.8004         43.1004
 125017286.1224   97416065.0404                   23790003.4944   23789996.2694
        43.4004         35.0004
 120727649.1314   94073512.1234                   22973715.7464   22973706.5014
        44.1004         38.4004
 130318615.2954  101546980.2454                   24798820.7574   24798812.0034
        42.0004         38.3004
 109182922.2234   85077636.1874                   20776818.6584   20776812.0194
        54.6004         48.8004
 129909215.3924  101227980.1734                   24720903.4854   24720894.2364
        42.4004         35.2004
 129582240.4134  100973177.4724                   24658701.4764   24658687.7934
        42.0004         39.2004
 108411308.3554   84476371.2604                   20629990.4704   20629983.2344
        53.2004         48.7004
 131682635.3444  102609872.2084                   25058379.4784   25058368.2874
        39.4004         37.9004
 12 10 10 16  6 30.0000000  0 12G01G04G07G08G09G11G15G17G20G26G28G32
 114756515.2224   89420683.3174                   21837441.4944   21837430.9484
        49.4004         45.0004
 127501141.1454   99351561.3634                   24262662.7744   24262650.9114
        43.2004         34.0004
 132580168.2964  103309222.8984                   25229194.4344   25229184.1004
        38.6004         29.2004
 114977533.7744   89592894.6684                   21879509.7744   21879501.6194
        51.4004         42.6004
 124913537.8414   97335222.1914                   23770261.2174   23770252.4714
        43.5004         35.7004
 120819963.3214   94145445.2084                   22991284.2014   22991271.9374
        43.2004         39.7004
 130364979.0724  101583107.7904                   24807642.2544   24807633.6594
        40.8004         36.9004
 109148444.2764   85050770.2574                   20770258.4784   20770251.9904
        55.3004         48.8004
 129830853.6744  101166919.1934                   24705992.3594   24705981.4864
        41.9004         35.3004
 129677405.4434  101047331.8574                   24676808.5974   24676796.2924
        41.8004         38.9004
 108411805.1974   84476758.3994                   20630085.0344   20630078.1514
        53.3004         48.4004
 131631320.2394  102569886.4794                   25048614.8494   25048602.2174
        38.2004         37.7004
 12 10 10 16  7  0.0000000  0 12G01G04G07G08G09G11G15G17G20G26G28G32
 114806542.6954   89459665.7424                   21846961.5084   21846950.6854
        49.1004         45.4004
 127380980.1724   99257929.5864                   24239796.5064   24239785.2304
        41.1004         33.7004
 132699983.1184  103402584.9084                   25251997.3394   25251984.9524
        40.6004         32.2004
 115076008.5484   89669628.1894                   21898248.7914   21898240.1884
        50.7004         42.5004
 124810119.4224   97254636.4274                   23750581.5904   23750572.5014
        44.0004         37.5004
 120912602.7014   94217631.6584                   23008912.4674   23008905.5974
        45.6004         36.7004
 130411729.2254  101619536.3824                   24816539.8784   24816532.1664
        42.6004         37.3004
 109114314.8834   85024175.9234                   20763764.2674   20763756.4984
        54.9004         49.3004
 129752658.6194  101105988.0474                   24691110.9514   24691101.6194
        39.8004         37.3004
 129772727.8974  101121608.9404                   24694947.9994   24694937.8274
        42.7004         38.3004
 108412605.2604   84477381.8184                   20630237.2924   20630230.9004
        53.8004         48.1004
 131580355.3754  102530173.5704                   25038915.8144   25038906.2084
        39.6004         36.3004
 12 10 10 16  7 30.0000000  0 12G01G04G07G08G09G11G15G17G20G26G28G32
 114857101.1374   89499061.9164                   21856582.1424   21856572.4684
        49.9004         45.2004
 127260874.0334   99164340.5674                   24216941.3184   24216928.4084
        38.9004         34.5004
 132819783.8384  103495935.7454                   25274796.2064   25274783.7284
        40.3004         31.0004
 115174864.2884   89746658.5644                   21917060.2474   21917051.8284
        50.9004         42.2004
 124707033.9864   97174310.1654                   23730966.0674   23730955.6184
        42.2004         39.6004
 121005564.6074   94290069.4804                   23026602.1464   23026595.5344
        46.1004         37.1004
 130458863.2804  101656264.2104                   24825508.2234   24825503.1054
        43.3004         35.8004
 109080533.5294   84997852.7924                   20757335.9054   20757327.8034
        55.0004         49.4004
 129674633.5384  101045189.4154                   24676262.2474   24676253.3154
        38.9004         36.2004
 129868204.4544  101196006.1114                   24713115.7654   24713105.6234
        42.0004         37.3004
 108413709.1044   84478241.9494                   20630447.2414   20630440.7054
        53.6004         48.3004
 131529743.1464  102490735.4864                   25029283.2254   25029276.0064
        40.6004         36.1004
 12 10 10 16  8  0.0000000  0 12G01G04G07G08G09G11G15G17G20G26G28G32
 114908188.7094   89538870.3924                   21866303.9324   21866293.7324
        49.8004         44.8004
 127140825.5324   99070796.4944                   24194096.3104   24194086.2634
        38.9004         34.3004
 132939568.0444  103589273.8924                   25297590.6364   25297576.9694
        40.0004         29.8004
 115274098.1374   89823983.5774                   21935943.4784   21935935.5434
        50.6004         41.2004
 124604284.8514   97094245.9914                   23711414.4684   23711404.5454
        42.8004         38.5004
 121098846.5624   94362756.6714                   23044351.7244   23044344.8454
        45.3004         37.3004
 130506378.8314  101693289.2364                   24834550.5584   24834545.9074
        44.0004         35.1004
 109047100.2454   84971800.8864                   20750973.6614   20750965.2174
        54.6004         49.0004
 129596781.3564  100984525.4744                   24661447.6714   24661440.5834
        39.5004         35.6004
 129963831.7974  101270520.7894                   24731313.1974   24731303.4234
        42.3004         37.0004
 108415117.4444   84479339.3484                   20630715.0004   20630709.0204
        53.7004         47.7004
 131479486.2214  102451574.2744                   25019720.0324   25019709.5534
        38.6004         36.6004
 12 10 10 16  8 30.0000000  0 12G01G04G07G08G09G11G15G17G20G26G28G32
 114959803.3264   89579089.5534                   21876126.0514   21876116.0174
        49.9004         45.2004
 127020836.9854   98977299.1214                   24171263.4474   24171252.8324
        39.9004         37.5004
 133059333.2474  103682597.1294                   25320381.0964   25320368.0934
        39.9004         32.7004
 115373707.1204   89901600.8894                   21954898.7094   21954890.7044
        50.6004         41.7004
 124501874.8234   97014446.0154                   23691925.4544   23691917.0574
        44.5004         36.9004
 121192445.4214   94435690.7764                   23062162.5404   23062155.3044
        44.7004         37.2004
 130554273.8964  101730610.0264                   24843665.0064   24843658.2334
        43.6004         38.1004
 109014014.7044   84946019.9434                   20744677.1914   20744669.9454
        54.7004         48.9004
 129519105.1394  100923998.6994                   24646666.8944   24646656.8394
        39.3004         35.6004
 130059606.3584  101345150.2034                   24749538.0434   24749530.4794
        43.3004         34.8004
 108416831.1284   84480674.6734                   20631041.0474   20631034.6514
        53.3004         48.3004
 131429587.0754  102412691.8364                   25010225.1784   25010216.0464
        39.9004         36.3004
 12 10 10 16  9  0.0000000  0 12G01G04G07G08G09G11G15G17G20G26G28G32
 115011943.1594   89619717.9674                   21886048.6874   21886037.5874
        49.6004         45.4004
 126900910.9234   98883850.4754                   24148444.0794   24148433.1714
        43.6004         37.5004
 133179077.4954  103775903.9794                   25343169.4604   25343154.0104
        38.5004         31.1004
 115473688.8774   89979508.6884                   21973925.0144   21973917.0934
        50.3004         41.9004
 124399807.3684   96934912.8924                   23672500.8964   23672493.7644
        44.2004         34.2004
 121286358.7024   94508869.9364                   23080034.8754   23080028.5694
        45.5004         37.2004
 130602545.9564  101768224.5124                   24852852.5454   24852843.2274
        43.6004         37.8004
 108981277.0374   84920510.0804                   20738446.8134   20738439.6294
        54.3004         48.7004
 129441608.2114  100863611.5174                   24631918.9984   24631910.8684
        41.4004         34.7004
 130155524.8604  101419891.7374                   24767791.7484   24767777.7154
        39.0004         38.1004
 108418851.0654   84482248.6374                   20631425.5864   20631419.3684
        53.1004         48.5004
 131380048.1554  102374090.1104                   25000796.8424   25000789.7484
        39.7004         35.8004
 12 10 10 16  9 30.0000000  0 12G01G04G07G08G09G11G15G17G20G26G28G32
 115064606.0824   89660753.9854                   21896070.0654   21896057.6454
        48.8004         46.0004
 126781050.0804   98790452.5994                   24125634.2724   24125623.9474
        44.0004         36.9004
 133298798.0494  103869192.4084                   25365952.6834   25365935.2634
        37.9004         29.2004
 115574040.5294   90057704.6854                   21993021.9124   21993013.2334
        50.2004         42.7004
 124298085.5194   96855649.1124                   23653148.2524   23653133.7394
        42.1004         40.1004
 121380583.7684   94582292.0084                   23097965.9224   23097957.8644
        45.5004         37.3004
 130651192.4214  101806130.7904                   24862107.9484   24862099.8404
        43.4004         36.6004
 108948886.8884   84895270.9984                   20732283.1454   20732276.4154
        54.6004         48.7004
 129364293.2134  100803366.1244                   24617206.4584   24617197.8074
        42.9004         35.1004
 130251583.7194  101494742.6334                   24786073.4384   24786063.4264
        42.6004         36.0004
 108421178.0064   84484061.8334                   20631868.1644   20631862.1794
        53.8004         47.9004
 131330871.9674  102335771.0254                   24991438.8964   24991429.4464
        39.8004         36.8004
 12 10 10 16 10  0.0000000  0 12G01G04G07G08G09G11G15G17G20G26G28G32
 115117790.3014   89702196.1994                   21906190.1634   21906178.7354
        49.1004         45.6004
 126661257.2014   98697107.6764                   24102837.8584   24102824.8974
        41.2004         35.5004
 133418493.0274  103962460.8104                   25388725.2034   25388712.9834
        35.4004         34.1004
 115674759.5194   90136186.9374                   22012187.6004   22012179.5324
        50.6004         42.4004
 124196712.7194   96776657.4494                   23633856.9854   23633847.3104
        42.6004         39.6004
 121475117.8574   94655954.8624                   23115955.4544   23115949.4734
        46.9004         36.8004
 130700211.1704  101844327.1944                   24871436.2424   24871427.4064
        42.7004         36.7004
 108916844.3054   84870302.7474                   20726185.5894   20726179.3264
        54.8004         48.5004
 129287163.3244  100743264.9404                   24602528.5734   24602521.0834
        43.0004         33.9004
 130347779.6964  101569700.4034                   24804379.0724   24804367.0454
        42.0004         37.2004
 108423812.8474   84486114.9444                   20632369.7164   20632363.8714
        53.9004         47.9004
 131282061.0964  102297736.5594                   24982150.2554   24982142.4324
        40.4004         35.3004
 12 10 10 16 10 30.0000000  0 12G01G04G07G08G09G11G15G17G20G26G28G32
 115171493.6634   89744042.9704                   21916409.4074   21916399.3764
        49.5004         45.2004
 126541534.4524   98603817.3804                   24080054.6144   24080042.7484
        37.3004         31.7004
 133538159.8104  104055707.2554                   25411500.2254   25411486.8214
        38.6004         30.3004
 115775842.8694   90214953.1004                   22031422.9404   22031413.8454
        49.4004         42.7004
 124095692.0014   96697940.0604                   23614633.5814   23614621.0554
        42.8004         41.8004
 121569958.1584   94729856.3534                   23134003.2614   23133994.8714
        45.6004         37.9004
 130749599.7294  101882811.7004                   24880836.0844   24880825.8704
        43.1004         38.7004
 108885149.1324   84845605.2074                   20720154.2104   20720147.8124
        54.6004         48.6004
 129210221.2734  100683310.1494                   24587889.6514   24587879.3484
        42.3004         33.8004
 130444109.3284  101644762.2484                   24822708.9484   24822695.0344
        39.5004         37.7004
 108426756.4524   84488408.6514                   20632930.2224   20632923.4304
        53.6004         48.2004
 131233617.8744  102259988.6054                   24972934.8964   24972925.5334
        40.0004         33.6004
 12 10 10 16 11  0.0000000  0 12G01G04G07G08G09G11G15G17G20G26G28G32
 115225714.5474   89786292.9744                   21926728.2294   21926716.0764
        48.8004         46.4004
 126421885.0744   98510584.3124                   24057286.7314   24057271.5584
        39.2004         33.2004
 133657796.8974  104148930.5904                   25434264.5504   25434251.5374
        37.6004         30.6004
 115877288.1484   90294001.2914                   22050727.3144   22050718.8274
        49.6004         43.2004
 123995026.7204   96619499.6134                   23595474.9624   23595467.2144
        44.5004         37.9004
 121665102.7484   94803994.8984                   23152109.0264   23152101.0344
        45.3004         37.5004
 130799356.0844  101921582.8134                   24890304.2274   24890294.6344
        42.4004         37.9004
 108853801.5384   84821178.5084                   20714189.5964   20714182.4024
        54.4004         49.3004
 129133470.7444  100623504.5604                   24573284.2024   24573273.5164
        40.7004         36.2004
 130540569.4664  101719925.8674                   24841064.1884   24841053.6704
        42.0004         37.6004
 108430009.8984   84490943.7954                   20633549.6564   20633542.5714
        53.4004         48.6004
 131185545.0744  102222529.2844                   24963784.7104   24963775.4694
        39.0004         36.3004
 12 10 10 16 11 30.0000000  0 12G01G04G07G08G09G11G15G17G20G26G28G32
 115280450.5164   89828944.3334                   21937143.6154   21937131.4724
        48.7004         46.0004
 126302311.1424   98417409.9234                   24034533.5964   24034519.1604
        41.2004         35.3004
 133777401.3854  104242128.4884                   25457023.1734   25457014.7244
        35.7004         32.1004
 115979092.0164   90373328.8864                   22070100.2454   22070091.4584
        49.7004         42.8004
 123894719.6614   96541338.2064                   23576385.7614   23576379.1674
        42.6004         33.9004
 121760548.2184   94878367.9684                   23170269.9464   23170261.6744
        44.9004         36.5004
 130849477.0684  101960638.0904                   24899841.7944   24899833.3764
        42.9004         37.2004
 108822800.9164   84797022.1854                   20708290.5874   20708282.8134
        54.4004         49.2004
 129056914.1544  100563850.1684                   24558714.1914   24558706.6864
        39.3004         34.9004
 130637156.3704  101795188.2324                   24859445.8024   24859433.0434
        40.8004         37.6004
 108433573.7564   84493720.8174                   20634227.6154   20634220.7274
        53.6004         47.9004
 131137844.8264  102185360.2844                   24954708.1314   24954697.2924
        39.0004         35.6004
 12 10 10 16 12  0.0000000  0 12G01G04G07G08G09G11G15G17G20G26G28G32
 115335699.7314   89871995.6434                   21947656.7224   21947646.5194
        49.5004         44.9004
 126182815.6094   98324296.6674                   24011794.8144   24011779.7674
        42.6004         36.8004
 133896971.5154  104335299.6894                   25479778.9664   25479764.9244
        35.0004         31.0004
 116081251.9184   90452933.9134                   22089541.0354   22089532.4994
        50.3004         43.0004
 123794774.3394   96463458.7484                   23557368.4334   23557359.7404
        41.7004         37.5004
 121856292.0594   94952973.4934                   23188488.1734   23188481.3554
        45.0004         36.6004
 130899960.7984  101999976.0164                   24909447.7254   24909441.2724
        44.1004         38.1004
 108792147.2204   84773136.1834                   20702457.4884   20702449.1404
        54.4004         49.3004
 128980555.0874  100504349.7204                   24544185.4454   24544174.3314
        38.8004         36.3004
 130733866.9164  101870546.9254                   24877848.4544   24877837.8464
        40.7004         37.2004
 108437448.9714   84496740.4564                   20634964.9174   20634957.7654
        53.6004         48.1004
 131090519.7924  102148483.6114                   24945701.9874   24945693.2504
        38.7004         34.8004
 12 10 10 16 12 30.0000000  0 12G01G04G07G08G09G11G15G17G20G26G28G32
 115391460.1284   89915445.2804                   21958267.7074   21958257.3094
        49.6004         44.6004
 126063400.9684   98231246.4424                   23989069.4454   23989057.4224
        44.1004         36.3004
 134016504.9374  104428442.2524                   25502527.0364   25502513.3504
        38.1004         30.0004
 116183765.2744   90532814.3634                   22109048.5424   22109039.8274
        50.5004         42.4004
 123695193.9334   96385863.7034                   23538420.1794   23538407.8294
        43.0004         41.7004
 121952331.5924   95027809.4434                   23206765.9694   23206758.3334
        45.3004         37.8004
 130950805.0154  102039594.7864                   24919123.9184   24919113.8954
        40.8004         38.9004
 108761840.5264   84749520.5754                   20696690.6304   20696682.2324
        54.8004         49.2004
 128904396.5544  100445005.5004                   24529690.5744   24529682.5774
        41.2004         36.0004
 130830697.7184  101945999.3014                   24896274.8304   24896265.5294
        42.6004         37.0004
 108441636.2844   84500003.2824                   20635761.8274   20635755.4294
        53.5004         48.1004
 131043572.2754  102111901.2194                   24936769.2024   24936759.7924
        39.8004         34.9004
 12 10 10 16 13  0.0000000  0 12G01G04G07G08G09G11G15G17G20G26G28G32
 115447729.6574   89959291.6284                   21968974.9264   21968964.0794
        48.8004         45.1004
 125944069.8824   98138261.3684                   23966361.0234   23966349.8964
        43.6004         37.2004
 134135999.3934  104521554.5184                   25525266.3264   25525255.1174
        38.9004         31.1004
 116286629.4134   90612968.1434                   22128623.2124   22128612.9764
        49.1004         42.6004
 123595981.4544   96308555.3144                   23519539.7784   23519531.0264
        44.3004         40.5004
 122048664.1124   95102873.6844                   23225097.3934   23225089.1824
        44.9004         37.4004
 131002006.9374  102079492.2164                   24928867.0124   24928857.7304
        40.6004         38.0004
 108731880.5554   84726175.1414                   20690989.7754   20690981.2464
        54.8004         49.4004
 128828441.2964  100385819.6734                   24515236.9784   24515228.0724
        41.0004         37.2004
 130927645.2864  102021542.7844                   24914723.4104   24914714.0024
        42.0004         36.3004
 108446136.3944   84503509.8484                   20636618.4594   20636611.5524
        53.4004         48.2004
 130997004.7234  102075614.8624                   24927906.7094   24927897.1274
        39.3004         34.9004
 12 10 10 16 13 30.0000000  0 12G01G04G07G08G09G11G15G17G20G26G28G32
 115504506.3134   90003533.1484                   21979779.5914   21979769.1274
        49.2004         45.0004
 125824824.7884   98045343.3124                   23943666.2274   23943655.8474
        40.7004         37.2004
 134255453.0244  104614634.9694                   25547998.2244   25547983.3494
        38.7004         32.7004
 116389841.3264   90693392.9314                   22148263.0134   22148253.4534
        48.8004         41.9004
 123497140.2094   96231536.2144                   23500731.2504   23500719.0684
        40.6004         39.0004
 122145287.2084   95178164.3474                   23243485.7204   23243478.0204
        45.7004         36.8004
 131053564.3794  102119666.7484                   24938677.5734   24938669.6514
        42.2004         36.8004
 108702266.9804   84703099.6364                   20685353.7284   20685346.0524
        54.8004         49.4004
 128752692.4704  100326794.6974                   24500822.6604   24500813.4384
        42.8004         36.7004
 131024706.4944  102097174.7394                   24933194.8714   24933182.7444
        41.3004         38.5004
 108450950.4624   84507261.0614                   20637534.6634   20637527.2384
        53.5004         48.4004
 130950819.8214  102039626.6074                   24919117.0684   24919107.7044
        39.8004         35.5004
 12 10 10 16 14  0.0000000  0 12G01G04G07G08G09G11G15G17G20G26G28G32
 115561787.8384   90048168.0774                   21990680.6584   21990669.7444
        49.2004         45.3004
 125705668.2704   97952494.3254                   23920993.6644   23920984.0004
        42.7004         34.2004
 134374863.7724  104707682.0114                   25570718.8584   25570708.3344
        32.7004         31.2004
 116493398.1854   90774086.5064                   22167970.1154   22167960.3254
        48.7004         41.8004
 123398673.1214   96154808.6674                   23481987.8724   23481981.9414
        39.3004         33.7004
 122242198.1224   95253679.3054                   23261926.7824   23261916.1534
        43.7004         38.6004
 131105474.5764  102160116.2194                   24948552.8024   24948547.2334
        42.0004         34.4004
 108672999.6604   84680293.9264                   20679784.2404   20679776.7494
        54.8004         49.2004
 128677153.1214  100267932.9144                   24486447.5124   24486438.6174
        42.7004         36.0004
 131121877.7724  102172892.4334                   24951685.9394   24951672.9714
        40.1004         37.6004
 108456079.0594   84511257.3594                   20638510.1254   20638503.4294
        53.3004         48.1004
 130905019.5914  102003938.1734                   24910400.9294   24910393.0814
        40.0004         35.5004
 12 10 10 16 14 30.0000000  0 12G01G04G07G08G09G11G15G17G20G26G28G32
 115619572.2154   90093194.8454                   22001677.1574   22001665.0074
        48.9004         45.2004
 125586603.3574   97859716.5834                   23898336.3644   23898327.1484
        44.9004         30.7004
 134494229.8414  104800694.1874                   25593424.4934   25593422.3564
        28.3004         34.7004
 116597297.1984   90855046.6564                   22187741.3494   22187731.5524
        48.5004         41.3004
 123300583.5174   96078375.1654                   23463326.6464   23463316.8764
        43.5004         36.3004
 122339394.0804   95329416.3274                   23280421.2364   23280413.1674
        44.5004         36.7004
 131157735.2944  102200838.8474                   24958500.8854   24958491.1034
        39.9004         34.9004
 108644078.3314   84657757.8224                   20674280.0424   20674273.2874
        55.1004         48.9004
 128601826.3324  100209236.7814                   24472115.1474   24472104.0784
        43.8004         36.0004
 131219155.7314  102248693.3104                   24970196.7804   24970185.7464
        40.9004         36.0004
 108461523.2024   84515499.5404                   20639545.8854   20639539.5834
        53.8004         47.6004
 130859606.5504  101968551.4054                   24901762.0074   24901753.1564
        40.5004         35.4004
 12 10 10 16 15  0.0000000  0 11G01G04G08G09G11G15G17G20G26G28G32
 115677857.1934   90138611.6674                   22012768.4764   22012755.6954
        48.3004         45.8004
 125467632.3944   97767012.0364                   23875698.7914   23875685.8914
        44.0004         32.0004
 116701535.6484   90936271.3104                   22207577.6354   22207568.5394
        48.8004         41.3004
 123202874.4764   96002238.2624                   23444734.4814   23444724.8144
        44.9004         39.5004
 122436872.0734   95405373.1424                   23298971.1354   23298961.6124
        43.8004         38.2004
 131210343.4034  102241832.0364                   24968513.8344   24968501.7574
        39.9004         37.6004
 108615502.9974   84635491.3224                   20668842.1244   20668835.5374
        55.0004         48.8004
 128526715.1574  100150708.6454                   24457818.0274   24457810.9954
        42.6004         35.5004
 131316537.0034  102324574.5964                   24988726.8144   24988715.0664
        39.3004         35.7004
 108467283.4794   84519988.0484                   20640642.2714   20640635.4714
        53.8004         47.7004
 130814582.8954  101933468.1194                   24893192.0134   24893181.6144
        39.4004         35.2004
 12 10 10 16 15 30.0000000  0 11G01G04G08G09G11G15G17G20G26G28G32
 115736640.8484   90184417.0724                   22023954.5974   22023942.7994
        48.9004         45.6004
 125348758.2134   97674382.9814                   23853075.5164   23853064.4654
        43.1004         33.7004
 116806110.7644   91017758.3234                   22227477.3674   22227468.4094
        48.8004         41.4004
 123105549.4294   95926400.6704                   23426214.1114   23426203.6024
        42.4004         40.0004
 122534629.9504   95481548.0544                   23317572.8354   23317568.6314
        45.9004         35.9004
 131263297.3264  102283094.6844                   24978590.5064   24978583.6484
        41.6004         37.6004
 108587273.7084   84613494.4664                   20663470.6654   20663464.0804
        55.2004         49.1004
 128451822.8044  100092351.0354                   24443568.3174   24443560.7834
        42.9004         34.0004
 131414018.5214  102400534.0594                   25007279.7934   25007265.5354
        40.7004         38.1004
 108473360.7554   84524723.5834                   20641799.0464   20641792.1104
        53.5004         47.7004
 130769951.2384  101898690.1804                   24884700.3744   24884691.6524
        40.6004         35.5004
 12 10 10 16 16  0.0000000  0 11G01G04G08G09G11G15G17G20G26G28G32
 115795921.0784   90230609.4344                   22035235.9384   22035223.7634
        49.2004         45.5004
 125229983.0464   97581831.0854                   23830473.7314   23830463.0374
        43.2004         33.9004
 116911019.8844   91099505.6074                   22247441.6904   22247431.4664
        48.7004         40.8004
 123008611.7344   95850864.8994                   23407765.9324   23407754.3944
        41.0004         38.6004
 122632665.1014   95557939.0464                   23336229.3284   23336220.5094
        43.4004         36.9004
 131316594.4234  102324624.8394                   24988728.9764   24988721.0684
        40.4004         35.9004
 108559389.9324   84591766.8474                   20658164.4054   20658157.4434
        55.2004         49.2004
 128377151.9844  100034166.0644                   24429358.5474   24429349.2144
        41.6004         34.0004
 131511596.8654  102476568.9664                   25025847.0784   25025834.2844
        41.1004         37.9004
 108479755.9744   84529706.8594                   20643015.7334   20643009.3794
        53.7004         47.6004
 130725713.8634  101864219.5514                   24876281.8084   24876272.1424
        40.1004         35.0004
 12 10 10 16 16 30.0000000  0 11G01G04G08G09G11G15G17G20G26G28G32
 115855695.6254   90277186.9794                   22046609.8434   22046597.7104
        48.6004         46.0004
 125111309.9714   97489358.7284                   23807892.0894   23807880.0024
        43.2004         33.8004
 117016259.9754   91181510.7854                   22267467.0954   22267459.3554
        48.9004         40.6004
 122912064.4744   95775633.2274                   23389390.5894   23389385.5034
        45.6004         35.1004
 122730974.6944   95634543.8874                   23354939.4374   23354929.1104
        43.5004         38.1004
 131370232.1584  102366420.3914                   24998939.3114   24998931.2354
        39.6004         35.4004
 108531851.7864   84570308.5424                   20652924.3294   20652917.1354
        54.7004         49.7004
 128302705.7864   99976156.1104                   24415193.5074   24415183.0224
        41.2004         35.6004
 131609268.7894  102552676.7074                   25044434.4474   25044421.6514
        40.0004         38.9004
 108486470.0284   84534938.5834                   20644293.5924   20644287.0264
        53.6004         47.9004
 130681873.1234  101830057.9434                   24867939.8974   24867927.9484
        38.2004         37.3004
 12 10 10 16 17  0.0000000  0 11G01G04G08G09G11G15G17G20G26G28G32
 115915962.2434   90324147.9454                   22058077.8704   22058068.0334
        49.9004         44.5004
 124992741.3894   97396967.7784                   23785328.0084   23785318.8694
        45.8004         32.8004
 117121827.7994   91263771.3024                   22287556.3854   22287549.0024
        49.5004         39.9004
 122815910.5374   95700708.0464                   23371095.6194   23371089.4474
        46.7004         36.2004
 122829555.8884   95711360.3064                   23373699.0394   23373688.6754
        43.8004         37.9004
 131424207.7654  102408479.0804                   25009210.7734   25009199.1024
        41.2004         38.7004
 108504658.3644   84549118.8604                   20647749.5654   20647742.1514
        54.9004         49.3004
 128228487.4774   99918323.7634                   24401069.4894   24401060.9954
        43.0004         35.5004
 131707030.6864  102628854.6474                   25063039.8204   25063026.2794
        42.9004         38.1004
 108493503.6434   84540419.3084                   20645631.8014   20645625.7834
        53.7004         47.5004
 130638431.1474  101796207.0944                   24859674.2524   24859664.3234
        40.1004         36.2004
 12 10 10 16 17 30.0000000  0 11G01G04G08G09G11G15G17G20G26G28G32
 115976718.7814   90371490.6804                   22069639.8284   22069629.5664
        49.6004         44.8004
 124874279.8954   97304660.2364                   23762785.5084   23762775.3694
        45.1004         32.7004
 117227720.9114   91346285.3074                   22307707.9464   22307699.1044
        48.8004         40.6004
 122720153.0024   95626091.8244                   23352875.0174   23352866.1204
        43.8004         40.0004
 122928406.1934   95788386.4734                   23392506.3484   23392497.8634
        43.1004         38.5004
 131478518.5084  102450799.0994                   25019545.9734   25019537.1804
        43.4004         36.5004
 108477809.6264   84528197.7584                   20642640.6014   20642633.3774
        54.8004         49.5004
 128154499.8044   99860671.0704                   24386990.8764   24386981.2814
        42.9004         37.0004
 131804879.3814  102705100.2164                   25081659.0474   25081644.4124
        41.7004         38.1004
 108500857.2954   84546149.4084                   20647031.0554   20647024.4434
        53.5004         47.8004
 130595390.2904  101762668.7704                   24851483.0644   24851474.9994
        41.2004         34.9004
 12 10 10 16 18  0.0000000  0 11G01G04G08G09G11G15G17G20G26G28G32
 116037962.9954   90419213.4134                   22081293.4794   22081283.4844
        49.5004         44.7004
 124755928.0444   97212438.1574                   23740263.5564   23740251.7484
        42.2004         32.4004
 117333936.1524   91429050.3244                   22327920.1554   22327910.1104
        48.2004         40.5004
 122624794.8994   95551786.9664                   23334730.0624   23334719.4104
        44.3004         39.5004
 123027522.9064   95865620.2014                   23411368.8324   23411359.9104
        43.1004         37.2004
 131533162.1104  102493378.4714                   25029943.9354   25029931.7424
        40.1004         35.9004
 108451305.8794   84507545.4854                   20637597.3674   20637590.0474
        55.1004         49.6004
 128080745.9274   99803200.6114                   24372955.1984   24372946.1104
        43.5004         36.2004
 131902811.4334  102781410.7784                   25100292.7534   25100280.5754
        40.9004         37.6004
 108508532.1394   84552129.7964                   20648491.8594   20648484.6234
        53.3004         48.3004
 130552752.7504  101729444.7364                   24843367.1964   24843356.6204
        38.6004         36.6004
 12 10 10 16 18 30.0000000  0 11G01G04G08G09G11G15G17G20G26G28G32
 116099692.8634   90467314.5704                   22093040.2884   22093029.6794
        49.3004         45.0004
 124637688.5834   97120303.6534                   23717762.3684   23717751.7064
        42.6004         33.1004
 117440471.1904   91512064.5454                   22348192.0054   22348182.5174
        47.6004         39.4004
 122529839.7924   95477795.9974                   23316660.0054   23316652.1564
        47.3004         38.3004
 123126903.6414   95943059.6564                   23430279.6104   23430272.6584
        43.5004         35.7004
 131588136.1884  102536215.3734                   25040408.4774   25040393.5654
        40.1004         35.0004
 108425146.6114   84487161.6404                   20632619.6444   20632612.2164
        55.3004         49.4004
 128007228.9104   99745914.7014                   24358965.1904   24358955.5484
        43.1004         37.1004
 132000823.7864  102857783.8064                   25118944.2424   25118932.4374
        41.0004         36.2004
 108516529.0224   84558361.1194                   20650013.8364   20650006.6664
        53.6004         47.9004
 130510521.0994  101696536.9004                   24835333.4204   24835322.7444
        39.3004         36.8004
 12 10 10 16 19  0.0000000  0 11G01G04G08G09G11G15G17G20G26G28G32
 116161905.9884   90515792.2804                   22104878.9884   22104868.3254
        48.9004         45.4004
 124519564.3774   97028259.0014                   23695285.7434   23695274.0274
        44.3004         35.5004
 117547322.8594   91595325.4674                   22368526.1904   22368516.4124
        47.0004         41.2004
 122435290.6494   95404121.3154                   23298665.2344   23298659.8124
        46.5004         36.1004
 123226545.4174   96020702.5444                   23449240.0714   23449234.5004
        43.7004         35.3004
 131643437.9954  102579307.6294                   25050927.9204   25050921.8274
        42.8004         36.2004
 108399331.3694   84467045.8684                   20627707.1764   20627699.6184
        55.0004         50.0004
 127933951.6314   99688815.5874                   24345021.2534   24345011.8044
        43.2004         35.4004
 132098912.9094  102934216.7094                   25137612.2134   25137601.5114
        43.8004         36.8004
 108524848.3264   84564843.6784                   20651596.9174   20651589.6644
        53.5004         48.1004
 130468697.2834  101663946.9334                   24827373.8494   24827362.7084
        39.8004         37.6004
 12 10 10 16 19 30.0000000  0 11G01G04G08G09G11G15G17G20G26G28G32
 116224600.1774   90564644.8754                   22116809.2504   22116799.0024
        49.2004         44.5004
 124401557.9624   96936306.0974                   23672828.1934   23672818.1714
        46.0004         32.3004
 117654488.2214   91678830.8134                   22388919.0084   22388911.2074
        48.7004         39.7004
 122341150.8164   95330765.6344                   23280752.1244   23280740.7744
        42.6004         39.0004
 123326445.7504   96098546.9294                   23468254.7004   23468242.6684
        42.7004         37.7004
 131699064.9914  102622653.1944                   25061514.9394   25061504.2164
        42.1004         38.3004
 108373860.2474   84447198.2284                   20622860.0774   20622852.4664
        55.1004         49.4004
 127860917.3774   99631905.8624                   24331122.2234   24331113.5544
        43.1004         34.8004
 132197075.6784  103010706.9634                   25156290.6154   25156278.5384
        41.5004         35.0004
 108533491.0344   84571578.2414                   20653241.4564   20653234.4694
        53.3004         48.2004
 130427283.7854  101631676.6964                   24819494.4784   24819481.2404
        38.7004         38.9004
 12 10 10 16 20  0.0000000  0 11G01G04G08G09G11G15G17G20G26G28G32
 116287773.2614   90613870.6374                   22128830.6514   22128820.0474
        49.0004         45.0004
 124283671.9704   96844446.9514                   23650393.8094   23650384.9444
        46.0004         32.6004
 117761964.6034   91762578.5154                   22409370.9874   22409362.6134
        48.1004         39.8004
 122247423.3714   95257731.3344                   23262917.9944   23262906.5264
        43.5004         40.4004
 123426602.0494   96176590.7094                   23487310.6794   23487302.6384
        43.2004         36.8004
 131755014.6574  102666250.2154                   25072161.3814   25072152.9904
        42.2004         38.0004
 108348732.9284   84427618.5004                   20618078.6564   20618071.0354
        55.4004         49.6004
 127788128.9884   99575187.6954                   24317269.3374   24317262.8424
        41.9004         34.0004
 132295308.7644  103087252.0454                   25174982.2534   25174971.4184
        39.8004         34.9004
 108542458.2274   84578565.6474                   20654947.9344   20654941.0184
        53.6004         48.5004
 130386282.8734  101599727.9144                   24811690.4514   24811681.4954
        40.7004         35.9004
 12 10 10 16 20 30.0000000  0 11G01G04G08G09G11G15G17G20G26G28G32
 116351423.1244   90663467.9034                   22140943.3364   22140932.9364
        49.2004         45.6004
 124165909.1814   96752683.8734                   23627986.5204   23627974.4734
        44.1004         35.1004
 117869749.1124   91846566.3394                   22429882.7224   22429872.5454
        47.3004         40.9004
 122154111.5334   95185020.8624                   23245161.2874   23245151.4504
        45.9004         41.6004
 123527011.6984   96254831.9424                   23506417.3874   23506410.9784
        43.3004         35.8004
 131811284.5084  102710096.7074                   25082870.1734   25082861.7494
        42.7004         37.7004
 108323949.2374   84408306.5254                   20613361.9794   20613354.4734
        55.0004         50.0004
 127715589.7404   99518663.7164                   24303468.6394   24303458.7834
        42.2004         35.3004
 132393609.0204  103163849.4834                   25193689.4594   25193679.4344
        40.0004         36.7004
 108551750.7784   84585806.5794                   20656716.4294   20656709.3114
        53.7004         48.0004
 130345696.6824  101568102.3614                   24803966.9954   24803958.4784
        40.1004         34.0004
 12 10 10 16 21  0.0000000  0 11G01G04G08G09G11G15G17G20G26G28G32
 116415547.1534   90713434.6364                   22153145.3584   22153134.7804
        48.9004         45.2004
 124048271.7134   96661018.4684                   23605599.2744   23605589.1884
        43.5004         35.7004
 117977838.6474   91930791.8034                   22450452.4464   22450441.6834
        46.7004         41.0004
 122061218.1294   95112636.4214                   23227483.6034   23227475.3274
        46.2004         39.6004
 123627671.9624   96333268.4254                   23525572.2884   23525566.1184
        43.9004         34.6004
 131867871.7854  102754190.6054                   25093637.4984   25093629.1564
        43.5004         35.9004
 108299508.5294   84389261.8174                   20608710.6024   20608703.4634
        54.9004         49.7004
 127643302.8074   99462336.2964                   24289711.1564   24289703.9164
        43.1004         35.5004
 132491972.9554  103240496.5124                   25212406.7854   25212396.9514
        40.5004         35.2004
 108561368.5944   84593300.9684                   20658546.4614   20658539.5114
        53.8004         48.0004
 130305527.2194  101536801.4494                   24796323.9044   24796312.9134
        40.2004         35.5004
 12 10 10 16 21 30.0000000  0 11G01G04G08G09G11G15G17G20G26G28G32
 116480143.1774   90763769.1724                   22165438.0374   22165428.1594
        49.2004         44.5004
 123930762.6564   96569453.1174                   23583238.4714   23583228.1654
        43.7004         35.5004
 118086230.3374   92015252.7474                   22471078.0584   22471067.9224
        47.3004         40.6004
 121968746.1984   95040580.4024                   23209886.2734   23209875.6754
        43.3004         39.1004
 123728580.1594   96411898.1534                   23544775.7384   23544768.6434
        43.7004         34.2004
 131924773.8164  102798529.8054                   25104465.5164   25104456.1064
        41.6004         37.2004
 108275410.7624   84370484.3244                   20604124.9334   20604117.6934
        55.1004         49.5004
 127571269.9624   99406206.8714                   24276006.5904   24275995.9734
        42.8004         36.5004
 132590397.3364  103317190.6514                   25231136.3604   25231124.5724
        39.4004         35.1004
 108571313.1174   84601049.9364                   20660438.6964   20660432.2664
        53.9004         47.5004
 130265776.8244  101505827.0944                   24788759.3674   24788750.3354
        41.8004         35.7004
 12 10 10 16 22  0.0000000  0 11G01G04G08G09G11G15G17G20G26G28G32
 116545208.9854   90814469.7744                   22177819.4034   22177809.6824
        48.9004         44.1004
 123813384.6104   96477989.8784                   23560901.7044   23560891.1284
        44.3004         36.6004
 118194921.7014   92099947.1834                   22491761.7834   22491751.9684
        48.0004         40.7004
 121876698.9344   94968855.2874                   23192369.1724   23192357.5964
        42.3004         39.4004
 123829733.5004   96490718.8764                   23564026.2064   23564016.5514
        42.9004         36.8004
 131981987.9724  102843112.0974                   25115355.6014   25115339.4444
        37.5004         37.2004
 108251655.9084   84351974.0454                   20599604.3824   20599597.3124
        55.2004         49.4004
 127499495.1524   99350278.5054                   24262345.5624   24262338.0214
        43.3004         35.2004
 132688878.9674  103393929.4744                   25249879.6724   25249863.0564
        37.6004         37.9004
 108581585.0604   84609054.0374                   20662393.3544   20662386.7814
        53.8004         47.6004
 130226447.6644  101475180.9604                   24781274.0294   24781265.1294
        40.6004         36.7004
 12 10 10 16 22 30.0000000  0 11G01G04G08G09G11G15G17G20G26G28G32
 116610742.1134   90865534.5034                   22190289.8694   22190277.6104
        47.6004         45.2004
 123696140.0734   96386630.5984                   23538589.3964   23538579.3804
        44.3004         35.7004
 118303909.4114   92184872.5594                   22512501.4454   22512491.4684
        47.5004         40.0004
 121785079.4154   94897463.4744                   23174935.2554   23174924.5854
        44.3004         40.1004
 123931129.5634   96569728.6924                   23583319.3974   23583311.6284
        43.2004         35.9004
 132039511.8354  102887935.7844                   25126299.0884   25126291.7414
        42.8004         32.0004
 108228243.4704   84333730.5824                   20595149.4154   20595143.0244
        55.8004         49.3004
 127427981.0894   99294553.3384                   24248737.6734   24248729.0364
        42.3004         35.5004
 132787414.3484  103470710.0694                   25268629.9634   25268617.5314
        40.9004         35.5004
 108592185.1284   84617313.8134                   20664410.5834   20664403.5104
        53.5004         47.6004
 130187541.6624  101444864.6254                   24773871.7924   24773859.1034
        38.9004         37.3004
 12 10 10 16 23  0.0000000  0 11G01G04G08G09G11G15G17G20G26G28G32
 116676740.3564   90916961.6704                   22202849.0474   22202837.6454
        47.8004         45.0004
 123579031.6784   96295377.3614                   23516303.5684   23516296.2434
        44.5004         32.4004
 118413190.3494   92270026.3864                   22533295.2794   22533286.8434
        46.9004         39.5004
 121693890.8684   94826407.4804                   23157582.5314   23157574.1434
        45.4004         40.6004
 124032765.7244   96648925.6274                   23602661.1994   23602652.4574
        43.1004         36.1004
 132097342.7774  102932998.8734                   25137303.8544   25137295.8734
        43.7004         33.5004
 108205173.1994   84315753.7414                   20590759.5444   20590752.6564
        55.4004         49.6004
 127356731.0624   99239033.9184                   24235179.0014   24235172.1524
        43.2004         36.5004
 132886000.4624  103547530.2474                   25287390.4594   25287379.8154
        41.7004         36.8004
 108603114.0944   84625829.8724                   20666490.4174   20666483.4484
        53.6004         48.0004
 130149061.2134  101414879.8444                   24766549.5344   24766537.5904
        39.9004         35.6004
 12 10 10 16 23 30.0000000  0 11G01G04G08G09G11G15G17G20G26G28G32
 116743201.6514   90968749.6634                   22215496.6614   22215485.3264
        48.0004         44.6004
 123462062.4154   96204232.5464                   23494047.9714   23494034.2814
        41.9004         34.7004
 118522762.2084   92355406.9274                   22554147.0444   22554137.7864
        46.6004         38.7004
 121603136.7364   94755689.9974                   23140313.4834   23140303.2194
        44.0004         40.8004
 124134639.8364   96728307.9524                   23622047.5724   23622039.7894
        43.7004         35.5004
 132155478.2794  102978299.1984                   25148368.6754   25148356.2524
        38.7004         37.6004
 108182444.8114   84298043.3054                   20586434.7454   20586427.1484
        55.3004         49.5004
 127285748.1284   99183722.6284                   24221670.7694   24221662.6574
        41.6004         36.2004
 132984634.3014  103624387.6484                   25306159.7054   25306147.2644
        39.9004         37.7004
 108614372.8214   84634602.8894                   20668632.8304   20668625.9114
        53.7004         47.8004
 130111008.6324  101385228.4534                   24759306.7244   24759297.7624
        41.5004         36.5004
 12 10 10 16 24  0.0000000  0 11G01G04G08G09G11G15G17G20G26G28G32
 116810123.4244   91020896.4724                   22228231.5744   22228219.2194
        47.3004         45.3004
 123345234.8334   96113198.1884                   23471815.8574   23471802.7794
        41.4004         37.6004
 118632621.9104   92441011.7764                   22575052.1674   22575043.6154
        46.3004         38.8004
 121512819.7424   94685313.1854                   23123125.2104   23123115.6584
        43.2004         40.3004
 124236748.8704   96807873.3894                   23641474.1354   23641468.7584
        42.7004         34.4004
 132213915.6144  103023834.5684                   25159489.3474   25159478.5054
        40.5004         38.7004
 108160058.2194   84280599.2054                   20582174.9574   20582167.6734
        55.6004         49.8004
 127215035.2044   99128621.6924                   24208212.7974   24208207.1074
        43.0004         35.0004
 133083312.3724  103701279.4324                   25324937.6524   25324924.4754
        39.5004         36.7004
 108625961.9854   84643633.3874                   20670838.2164   20670831.9874
        54.0004         47.7004
 130073385.8534  101355911.9754                   24752148.0924   24752137.0544
        41.5004         38.1004
 12 10 10 16 24 30.0000000  0 11G01G04G08G09G11G15G17G20G26G28G32
 116877503.3094   91073400.2414                   22241053.5234   22241041.0004
        47.0004         45.0004
 123228551.3884   96022276.1444                   23449611.9444   23449599.5834
        42.0004         37.7004
 118742766.3044   92526838.4504                   22596013.1784   22596002.6874
        45.7004         38.2004
 121422943.0964   94615279.4434                   23106022.2874   23106013.2894
        44.5004         39.6004
 124339090.1744   96887619.7884                   23660952.7854   23660943.8854
        43.1004         35.2004
 132272652.1724  103069603.1554                   25170665.3204   25170655.4304
        41.2004         37.1004
 108138012.7244   84263420.8964                   20577979.7064   20577971.8244
        55.2004         49.9004
 127144595.1694   99073733.4004                   24194811.2814   24194801.2684
        42.1004         35.4004
 133182031.4314  103778203.1254                   25343724.3814   25343710.1744
        38.9004         37.1004
 108637882.1984   84652921.8584                   20673106.3824   20673100.2294
        53.9004         47.6004
 130036194.8954  101326932.0014                   24745073.4774   24745062.8154
        41.8004         38.2004
 12 10 10 16 25  0.0000000  0 11G01G04G08G09G11G15G17G20G26G28G32
 116945339.0084   91126259.1854                   22253961.8094   22253950.5164
        47.2004         44.9004
 123112015.0744   95931468.7334                   23427435.6364   23427423.8544
        43.0004         38.6004
 118853192.1774   92612884.4494                   22617027.0914   22617016.9064
        45.2004         37.8004
 121333509.8714   94545591.1984                   23089004.9194   23088995.5814
        45.2004         40.9004
 124441661.1884   96967545.1564                   23680471.1894   23680465.0534
        44.5004         34.8004
 132331685.2164  103115602.8454                   25181899.4244   25181889.3084
        40.0004         35.8004
 108116308.2594   84246508.3214                   20573849.4864   20573842.3064
        55.4004         50.0004
 127074430.9714   99019060.0524                   24181458.9554   24181449.9044
        42.8004         35.7004
 133280788.2024  103855156.2884                   25362516.1404   25362502.3924
        39.2004         38.5004
 108650134.3964   84662469.0144                   20675437.7654   20675430.8904
        53.6004         47.7004
 129999437.6624  101298290.0284                   24738077.3054   24738064.9894
        39.8004         37.5004
 12 10 10 16 25 30.0000000  0 11G01G04G08G09G11G15G17G20G26G28G32
 117013627.9264   91179471.2934                   22266956.6304   22266946.5204
        48.0004         43.8004
 122995627.9214   95840777.5464                   23405287.6814   23405276.0894
        44.1004         36.6004
 118963896.9894   92699147.8074                   22638093.9814   22638083.5924
        46.8004         37.6004
 121244522.7504   94476250.6034                   23072071.1424   23072059.6704
        43.8004         41.5004
 124544459.1054   97047647.3584                   23700032.8384   23700024.5334
        43.6004         36.0004
 132391011.8204  103161831.3134                   25193188.8894   25193180.0234
        40.4004         34.9004
 108094944.3304   84229861.1074                   20569784.2084   20569776.6144
        55.8004         49.7004
 127004545.2774   98964603.6694                   24168158.7464   24168152.2474
        43.5004         33.3004
 133379579.3354  103932136.2594                   25381315.9634   25381304.2794
        41.5004         37.8004
 108662719.1444   84672275.2934                   20677832.4604   20677825.5684
        53.8004         47.5004
 129963116.2364  101269987.6434                   24731164.8514   24731153.8684
        39.9004         38.4004
 12 10 10 16 26  0.0000000  0 11G01G04G08G09G11G15G17G20G26G28G32
 117082368.0794   91233035.0164                   22280037.7644   22280026.8214
        47.7004         44.1004
 122879393.3954   95750205.2674                   23383167.6984   23383158.0564
        44.9004         35.9004
 119074877.9594   92785626.3674                   22659211.4194   22659203.8314
        47.0004         36.8004
 121155985.3084   94407260.4614                   23055223.4804   23055210.6514
        43.2004         42.7004
 124647481.6394   97127924.5514                   23719638.7234   23719629.3144
        43.1004         36.6004
 132450629.6804  103208286.6054                   25204533.2534   25204524.2144
        42.5004         35.3004
 108073921.1834   84213479.4294                   20565783.7414   20565776.1904
        55.7004         49.9004
 126934941.7204   98910367.1714                   24154915.4734   24154904.5604
        42.2004         36.2004
 133478402.0524  104009140.7464                   25400122.1674   25400109.6894
        39.7004         36.8004
 108675637.3584   84682341.4214                   20680291.0364   20680284.1364
        53.5004         47.7004
 129927232.9884  101242026.7014                   24724334.8864   24724325.3844
        39.8004         36.0004
 12 10 10 16 26 30.0000000  0 11G01G04G08G09G11G15G17G20G26G28G32
 117151556.9134   91286948.3504                   22293204.4354   22293193.7374
        48.3004         43.9004
 122763313.7854   95659753.6804                   23361079.3804   23361068.7344
        44.3004         36.5004
 119186131.9204   92872317.6374                   22680382.9754   22680373.7344
        45.8004         37.6004
 121067900.4174   94338622.9094                   23038460.1844   23038451.6574
        45.9004         40.2004
 124750726.2234   97208374.8284                   23739283.8554   23739275.7904
        42.9004         34.6004
 132510535.9254  103254966.6804                   25215931.9024   25215922.9774
        41.3004         35.0004
 108053238.1464   84197362.7794                   20561847.6584   20561839.9324
        55.6004         49.8004
 126865622.9364   98856352.5554                   24141725.1504   24141715.6604
        43.6004         35.9004
 133577252.8854  104086167.1154                   25418933.8304   25418918.7624
        38.5004         37.1004
 108688889.7764   84692667.9614                   20682813.0494   20682806.3924
        53.8004         47.3004
 129891789.7404  101214408.5714                   24717591.6354   24717582.4604
        41.2004         36.7004
 12 10 10 16 27  0.0000000  0 11G01G04G08G09G11G15G17G20G26G28G32
 117221191.9904   91341209.4094                   22306455.5794   22306444.1884
        47.5004         45.0004
 122647391.5624   95569424.7864                   23339018.6244   23339009.8544
        43.9004         36.9004
 119297655.9274   92959219.3194                   22701605.6874   22701596.0964
        44.9004         38.1004
 120980271.1754   94270340.3744                   23021784.2334   23021777.7114
        46.1004         38.7004
 124854190.1294   97288995.9874                   23758971.4444   23758966.1254
        44.7004         34.5004
 132570727.8054  103301869.3094                   25227386.6874   25227375.3284
        38.8004         36.1004
 108032894.9404   84181510.9234                   20557976.1554   20557969.1724
        55.4004         49.9004
 126796591.6324   98802561.9484                   24128586.4774   24128577.9234
        41.9004         35.8004
 133676128.7064  104163213.0544                   25437746.9484   25437732.2914
        37.3004         38.8004
 108702476.8014   84703255.2384                   20685398.3434   20685391.6084
        53.7004         47.2004
 129856788.4784  101187134.7904                   24710932.6254   24710921.3934
        41.4004         35.7004
 12 10 10 16 27 30.0000000  0 11G01G04G08G09G11G15G17G20G26G28G32
 117291270.9114   91395816.3164                   22319790.8034   22319779.8494
        48.0004         44.1004
 122531629.5904   95479220.7654                   23316989.7414   23316979.4654
        44.6004         35.5004
 119409447.0214   93046329.1444                   22722878.7604   22722869.8644
        45.7004         38.3004
 120893100.4044   94202415.0974                   23005195.6774   23005189.1324
        45.9004         38.7004
 124957870.7214   97369785.9704                   23778704.1864   23778694.2474
        43.0004         36.9004
 132631202.7184  103348992.5304                   25238896.4934   25238885.6114
        39.6004         35.8004
 108012891.3144   84165923.6744                   20554169.4334   20554162.5834
        55.7004         49.8004
 126727850.9194   98748997.7734                   24115507.1104   24115498.6014
        43.6004         36.6004
 133775026.2154  104240275.9284                   25456568.2654   25456555.2954
        41.3004         34.6004
 108716399.2804   84714103.9104                   20688047.6084   20688040.7004
        53.4004         47.7004
 129822231.1694  101160207.0284                   24704354.8694   24704347.4554
        41.9004         36.2004
 12 10 10 16 28  0.0000000  0 11G01G04G08G09G11G15G17G20G26G28G32
 117361791.0504   91450767.0334                   22333210.8504   22333199.8894
        48.2004         44.6004
 122416030.1954   95389143.4054                   23294992.1044   23294982.5414
        45.7004         37.0004
 119521502.1184   93133644.6504                   22744202.2734   22744192.1844
        44.8004         39.5004
 120806390.9914   94134849.3454                   22988697.3964   22988689.5054
        46.1004         40.5004
 125061765.2934   97450742.6874                   23798472.5064   23798464.1704
        42.7004         34.9004
 132691957.9064  103396334.0674                   25250456.3474   25250445.3794
        38.8004         37.0004
 107993226.3944   84150600.3554                   20550427.2574   20550420.5364
        55.7004         50.0004
 126659403.7004   98695662.2774                   24102482.7734   24102473.1034
        42.7004         36.2004
 133873942.1314  104317353.0874                   25475390.0994   25475375.6464
        37.8004         37.2004
 108730657.9464   84725214.5374                   20690761.4674   20690754.4214
        53.7004         47.5004
 129788119.5334  101133626.5414                   24697864.8034   24697853.1684
        39.6004         37.8004
 12 10 10 16 28 30.0000000  0 11G01G04G08G09G11G15G17G20G26G28G32
 117432750.4604   91506060.0334                   22346713.6054   22346703.0584
        47.8004         44.5004
 122300596.7234   95299195.3654                   23273026.9064   23273015.5244
        45.5004         38.2004
 119633818.7384   93221163.9434                   22765576.1614   22765565.4294
        45.2004         39.5004
 120720146.3404   94067645.7764                   22972286.8894   22972274.8174
        45.2004         41.9004
 125165871.6664   97531864.4304                   23818284.3294   23818275.7014
        42.6004         36.1004
 132752991.0064  103443892.1674                   25262070.1404   25262060.9794
        37.8004         36.0004
 107973900.6184   84135541.3024                   20546749.4794   20546742.7054
        55.5004         49.9004
 126591253.3264   98642558.1274                   24089513.6644   24089506.0794
        43.7004         35.1004
 133972873.7174  104394442.5154                   25494216.6374   25494200.8024
        34.7004         38.8004
 108745253.8774   84736587.9724                   20693538.6364   20693532.2244
        53.7004         47.8004
 129754456.0684  101107395.3084                   24691458.8544   24691448.0644
        39.9004         36.9004
 12 10 10 16 29  0.0000000  0 11G01G04G08G09G11G15G17G20G26G28G32
 117504146.3884   91561693.1694                   22360299.6024   22360289.1584
        47.8004         43.9004
 122185331.3184   95209378.3384                   23251092.4824   23251080.8394
        44.1004         38.6004
 119746393.2224   93308884.1824                   22786998.4114   22786988.2994
        45.8004         39.2004
 120634369.2844   94000806.5584                   22955963.6664   22955952.7124
        45.6004         40.6004
 125270186.7774   97613148.8774                   23838133.6484   23838127.1284
        43.7004         35.1004
 132814298.9754  103491664.4384                   25273739.6044   25273729.0344
        41.0004         37.0004
 107954913.1634   84120745.8824                   20543136.5204   20543129.5244
        55.3004         49.5004
 126523402.2874   98589687.1744                   24076602.9404   24076593.6714
        43.2004         35.8004
 134071817.3834  104471541.2784                   25513046.4344   25513034.3694
        42.2004         35.5004
 108760187.3424   84748224.4314                   20696380.2844   20696373.6714
        53.8004         47.6004
 129721242.3804  101081514.5804                   24685139.4024   24685127.4914
        41.7004         39.3004
 12 10 10 16 29 30.0000000  0 11G01G04G08G09G11G15G17G20G26G28G32
 117575976.6484   91617664.7554                   22373968.1704   22373957.1614
        47.4004         44.2004
 122070236.9194   95119694.5574                   23229190.7004   23229179.9704
        44.8004         38.8004
 119859223.0904   93396803.3954                   22808468.8284   22808460.1044
        45.4004         38.3004
 120549063.0954   93934334.2254                   22939728.3134   22939719.9144
        45.8004         39.1004
 125374708.5924   97694594.3784                   23858024.3734   23858015.5464
        41.7004         35.4004
 132875879.1514  103539648.9204                   25285456.7524   25285447.1254
        41.4004         34.0004
 107936263.9254   84106214.0084                   20539587.5804   20539580.4154
        55.4004         49.9004
 126455853.6964   98537051.9574                   24063747.7704   24063739.1824
        44.0004         35.4004
 134170770.3954  104548647.2934                   25531876.8344   25531862.7984
        40.6004         37.3004
 108775459.3184   84760124.6584                   20699286.5674   20699279.6644
        53.6004         47.3004
 129688480.6634  101055985.9664                   24678903.5264   24678893.7294
        41.9004         36.6004
 12 10 10 16 30  0.0000000  0 11G01G04G08G09G11G15G17G20G26G28G32
 117648238.8234   91673972.9154                   22387719.2244   22387707.8944
        47.1004         44.3004
 121955316.2424   95030146.1174                   23207320.1254   23207311.4604
        44.9004         36.6004
 119972305.5724   93484919.4534                   22829989.7854   22829977.7884
        44.7004         38.6004
 120464230.7814   93868231.1314                   22923585.5334   22923576.1814
        45.3004         39.4004
 125479434.7884   97776199.1114                   23877953.3574   23877943.9174
        42.1004         35.8004
 132937729.1724  103587843.5944                   25297225.7684   25297213.8474
        40.0004         36.9004
 107917952.8974   84091945.6744                   20536103.1994   20536096.1254
        55.6004         50.1004
 126388610.7064   98484654.7804                   24050952.1144   24050944.1644
        44.2004         34.7004
 134269729.4774  104625758.1504                   25550707.4474   25550692.9484
        41.0004         34.4004
 108791070.6184   84772289.2894                   20702257.0764   20702250.4374
        53.8004         47.2004
 129656172.8024  101030811.0084                   24672754.6604   24672746.1704
        40.9004         33.8004
 12 10 10 16 30 30.0000000  0 11G01G04G08G09G11G15G17G20G26G28G32
 117720930.2344   91730615.5444                   22401552.6924   22401540.9304
        47.1004         44.1004
 121840571.7114   94940734.8924                   23185484.1284   23185477.5524
        45.9004         35.2004
 120085637.3414   93573229.7574                   22851554.7374   22851544.3794
        45.2004         37.5004
 120379874.9724   93802499.3674                   22907534.4454   22907523.7704
        45.8004         40.3004
 125584362.4644   97857960.8704                   23897921.3374   23897912.2924
        41.8004         34.1004
 132999846.0924  103636246.2394                   25309047.9464   25309036.4594
        39.6004         37.2004
 107899979.2134   84077940.2024                   20532683.1164   20532676.4324
        55.9004         49.9004
 126321675.9624   98432497.8344                   24038215.5434   24038205.3734
        43.6004         35.0004
 134368691.3824  104702871.2024                   25569536.7634   25569526.0494
        40.3004         32.9004
 108807021.6464   84784718.6534                   20705292.1774   20705285.8884
        53.8004         47.7004
 129624320.3054  101005990.9104                   24666691.8484   24666681.5294
        38.7004         35.9004
 12 10 10 16 31  0.0000000  0 11G01G04G08G09G11G15G17G20G26G28G32
 117794048.3234   91787590.6274                   22415466.7844   22415453.9574
        46.3004         45.4004
 121726005.7354   94851462.8194                   23163684.6134   23163675.5884
        44.9004         37.9004
 120199215.3764   93661732.0104                   22873166.9754   22873158.3984
        45.7004         37.1004
 120295998.2204   93737140.8844                   22891571.8264   22891561.1654
        45.3004         41.5004
 125689488.8464   97939877.4394                   23917924.7864   23917916.4094
        42.1004         35.2004
 133062226.8634  103684854.4564                   25320919.3294   25320907.1664
        38.9004         36.9004
 107882342.6184   84064197.4044                   20529327.0574   20529320.0344
        55.6004         50.5004
 126255052.2844   98380583.2854                   24025533.7664   24025528.0664
        43.7004         34.7004
 134467652.7744  104779983.8744                   25588371.5364   25588357.9794
        39.2004         34.9004
 108823312.9524   84797413.1644                   20708392.5144   20708386.4244
        54.0004         47.3004
 129592925.1764  100981527.1854                   24660719.1514   24660709.9914
        42.5004         35.2004
 12 10 10 16 31 30.0000000  0 11G01G04G08G09G11G15G17G20G26G28G32
 117867590.6294   91844896.2734                   22429460.7314   22429447.4684
        45.6004         44.9004
 121611621.2394   94762332.1444                   23141917.9984   23141906.1844
        44.5004         38.8004
 120313036.4724   93750423.6434                   22894826.2534   22894817.9914
        45.6004         36.3004
 120212604.4714   93672158.7714                   22875702.7764   22875693.1334
        45.6004         39.5004
 125794811.3104   98021946.8164                   23937968.6924   23937958.3174
        41.2004         36.6004
 133124868.7964  103733666.2504                   25332836.5704   25332828.4474
        40.2004         34.3004
 107865042.5344   84050716.8134                   20526035.4084   20526027.5604
        55.6004         50.1004
 126188742.5364   98328913.3634                   24012918.6974   24012910.7184
        44.1004         35.6004
 134566610.6254  104857093.6804                   25607202.3044   25607188.4204
        39.7004         33.6004
 108839945.1514   84810373.3084                   20711557.6874   20711551.5544
        54.2004         47.6004
 129561989.1584  100957421.2464                   24654833.7124   24654823.2814
        42.5004         38.3004
 12 10 10 16 32  0.0000000  0 11G01G04G08G09G11G15G17G20G26G28G32
 117941554.9594   91902530.7734                   22443536.4294   22443524.5054
        46.4004         44.8004
 121497421.0544   94673345.1094                   23120186.9084   23120177.2474
        44.6004         39.2004
 120427098.1944   93839302.7514                   22916530.9994   22916523.1354
        44.6004         37.2004
 120129696.3434   93607555.0754                   22859926.6224   22859917.0034
        45.7004         39.3004
 125900327.5374   98104167.2214                   23958045.8114   23958040.3254
        42.8004         34.8004
 133187769.5964  103782679.7714                   25344807.8674   25344793.9614
        35.9004         37.5004
 107848079.0674   84037498.5274                   20522807.3304   20522799.2194
        55.3004         50.7004
 126122749.9874   98277490.6254                   24000358.4454   24000351.6764
        43.6004         36.8004
 134665561.9834  104934198.5764                   25626032.0804   25626019.5264
        41.6004         34.5004
 108856919.4114   84823599.9964                   20714787.8224   20714781.0804
        54.3004         47.7004
 129531514.3564  100933674.6674                   24649034.4304   24649023.4444
        42.2004         36.8004
 12 10 10 16 32 30.0000000  0 11G01G04G08G09G11G15G17G20G26G28G32
 118015938.7694   91960492.1564                   22457691.3914   22457677.9734
        45.9004         44.2004
 121383407.7004   94584503.6694                   23098490.7614   23098481.0854
        45.2004         38.9004
 120541397.5714   93928367.0434                   22938283.1174   22938272.8584
        43.7004         37.1004
 120047277.0094   93543332.2334                   22844241.7074   22844233.3754
        46.1004         38.5004
 126006035.0254   98186536.6344                   23978162.6994   23978155.4604
        41.5004         36.0004
 133250926.3114  103831892.5804                   25356826.5274   25356816.0564
        40.1004         36.1004
 107831451.7714   84024542.1944                   20519642.9574   20519635.4464
        55.6004         50.3004
 126057077.2494   98226317.1164                   23987863.0904   23987855.2254
        44.7004         36.2004
 134764503.7364  105011295.8654                   25644858.0834   25644848.8084
        42.2004         32.9004
 108874236.2244   84837093.6034                   20718083.2774   20718076.6164
        54.4004         47.7004
 129501502.5044  100910288.8684                   24643320.9254   24643312.2864
        41.3004         34.1004
 12 10 10 16 33  0.0000000  0 11G01G04G08G09G11G15G17G20G26G28G32
 118090739.5384   92018778.4214                   22471925.1404   22471911.9004
        45.7004         44.2004
 121269583.8664   94495809.8664                   23076830.1594   23076820.9304
        45.4004         37.4004
 120655931.1904   94017613.8354                   22960077.7854   22960067.6034
        44.4004         35.5004
 119965349.2594   93479492.4434                   22828652.4824   22828641.5944
        45.9004         39.8004
 126111931.2214   98269053.0054                   23998313.0314   23998306.5604
        42.0004         35.0004
 133314335.9994  103881302.5464                   25368891.8124   25368881.5004
        39.2004         37.0004
 107815160.2354   84011847.4974                   20516543.0694   20516534.9844
        55.3004         50.3004
 125991727.3954   98175395.1654                   23975427.2504   23975418.3424
        43.6004         37.7004
 134863432.7634  105088383.2114                   25663688.2684   25663673.5294
        40.3004         32.5004
 108891895.9274   84850854.4024                   20721443.9214   20721437.6664
        54.2004         47.6004
 129471955.3524  100887265.0914                   24637697.0674   24637690.8024
        42.9004         33.3004
 12 10 10 16 33 30.0000000  0 11G01G04G08G09G11G15G17G20G26G28G32
 118165954.6064   92077387.5464                   22486236.8144   22486225.2344
        46.0004         43.8004
 121155952.0724   94407265.6894                   23055206.4554   23055196.4734
        46.1004         37.9004
 120770696.2374   94107041.0104                   22981914.8394   22981908.2234
        45.3004         33.7004
 119883915.8004   93416037.8384                   22813156.7394   22813144.3364
        44.8004         40.6004
 126218013.7034   98351714.6294                   24018501.8944   24018491.1254
        41.0004         35.2004
 133377996.0994  103930907.6804                   25381005.5694   25380995.7604
        37.9004         34.7004
 107799203.9154   83999413.9964                   20513506.4434   20513498.5654
        55.3004         50.4004
 125926702.9794   98124726.7834                   23963053.1744   23963043.4504
        43.0004         37.2004
 134962345.8884  105165458.2894                   25682506.6094   25682497.1454
        40.5004         33.0004
 108909899.4134   84864883.0804                   20724870.0434   20724863.2384
        54.3004         47.6004
 129442874.5834  100864604.7664                   24632166.0634   24632158.3094
        44.1004         35.9004
 12 10 10 16 34  0.0000000  0 11G01G04G08G09G11G15G17G20G26G28G32
 118241581.7014   92136317.7154                   22500628.7134   22500615.9404
        45.6004         44.1004
 121042515.2724   94318873.4294                   23033620.1024   23033610.7714
        45.9004         37.5004
 120885689.7974   94196646.2634                   23003798.1374   23003791.5124
        45.4004         34.7004
 119802979.6214   93352970.7094                   22797753.7124   22797744.2524
        45.3004         39.3004
 126324280.0614   98434519.5394                   24038721.9874   24038715.2294
        41.2004         34.7004
 133441903.8604  103980705.8724                   25393168.7974   25393159.9504
        40.6004         34.1004
 107783582.6734   83987241.6054                   20510534.0864   20510526.3064
        55.5004         50.5004
 125862007.2374   98074314.5514                   23950742.3544   23950733.0264
        42.7004         36.3004
 135061240.2054  105242518.6344                   25701327.6604   25701315.1454
        39.4004         33.6004
 108928247.5294   84879180.3074                   20728361.2764   20728354.2614
        53.8004         47.9004
 129414262.1224  100842309.3674                   24626722.1484   24626710.9664
        42.3004         37.9004
 12 10 10 16 34 30.0000000  0 11G01G04G08G09G11G15G17G20G26G28G32
 118317618.2074   92195566.8974                   22515098.2914   22515087.6424
        46.4004         43.0004
 120929275.7654   94230634.8994                   23012070.8814   23012059.8274
        44.4004         37.5004
 121000908.6824   94286427.0564                   23025726.3034   23025715.3164
        44.0004         37.2004
 119722543.5994   93290293.3404                   22782446.7744   22782435.7774
        44.9004         40.0004
 126430727.4684   98517465.4884                   24058978.3864   24058970.9664
        40.7004         35.5004
 133506056.4344  104030694.6914                   25405377.3754   25405365.6354
        40.5004         35.8004
 107768296.0124   83975329.9204                   20507624.9714   20507617.5994
        55.5004         50.5004
 125797643.0894   98024160.7114                   23938493.5374   23938485.6934
        42.8004         36.0004
 135160112.4244  105319561.7494                   25720143.2344   25720129.7474
        36.8004         30.2004
 108946940.7344   84893746.4374                   20731918.4604   20731911.8524
        53.8004         47.5004
 129386119.5284  100820380.1314                   24621365.3664   24621353.8634
        40.7004         37.0004
 12 10 10 16 35  0.0000000  0 11G01G04G08G09G11G15G17G20G26G28G32
 118394061.6824   92255133.2184                   22529645.9134   22529633.0904
        46.2004         43.7004
 120816236.4694   94142552.3834                   22990561.6544   22990550.4834
        45.6004         39.0004
 121116350.0554   94376381.2134                   23047693.5614   23047685.0654
        44.7004         37.6004
 119642610.7624   93228008.0384                   22767235.3894   22767227.0314
        46.1004         38.8004
 126537353.7784   98600550.8264                   24079269.8014   24079259.2804
        40.2004         35.8004
 133570450.8484  104080872.1034                   25417630.6544   25417622.0564
        42.3004         35.7004
 107753343.2734   83963678.4314                   20504779.0574   20504772.5834
        56.1004         50.1004
 125733612.8464   97974267.0374                   23926310.5154   23926299.8194
        41.8004         36.5004
 135258959.7314  105396585.5354                   25738954.4114   25738939.1074
        37.8004         34.9004
 108965979.7154   84908581.9934                   20735541.4444   20735534.8484
        54.0004         47.3004
 129358448.6594  100798818.4384                   24616098.2194   24616088.0814
        41.7004         35.5004
 12 10 10 16 35 30.0000000  0 11G01G04G08G09G11G15G17G20G26G28G32
 118470909.6394   92315014.6854                   22544269.8454   22544254.7274
        44.8004         45.1004
 120703400.1564   94054628.0394                   22969090.0424   22969079.7044
        46.7004         38.9004
 121232010.9824   94466506.4254                   23069704.5584   23069693.1424
        43.7004         38.7004
 119563184.1664   93166117.1974                   22752119.5924   22752112.9134
        46.3004         38.6004
 126644156.1024   98683773.3794                   24099594.8444   24099582.1914
        39.3004         37.3004
 133635084.5554  104131235.8294                   25429929.1004   25429915.6374
        36.4004         35.2004
 107738724.5174   83952287.1854                   20501997.0474   20501990.8364
        55.8004         50.3004
 125669919.8674   97924636.2034                   23914189.0044   23914178.5994
        41.2004         37.9004
 135357779.1264  105473587.4024                   25757757.9724   25757742.0804
        34.6004         34.9004
 108985365.0224   84923687.4234                   20739230.5274   20739223.8754
        54.0004         47.4004
 129331251.4014  100777625.7804                   24610926.4034   24610913.3794
        42.2004         37.7004
 12 10 10 16 36  0.0000000  0 11G01G04G08G09G11G15G17G20G26G28G32
 118548159.5534   92375209.3704                   22558970.1084   22558956.9604
        45.8004         44.5004
 120590769.2214   93966863.7144                   22947656.8744   22947646.5834
        46.1004         39.7004
 121347888.3504   94556800.2994                   23091755.4874   23091743.6204
        44.3004         38.9004
 119484266.3104   93104622.7834                   22737103.2524   22737094.4564
        45.9004         40.2004
 126751132.3474   98767131.3774                   24119949.8464   24119939.4694
        39.3004         36.8004
 133699955.2664  104181784.3084                   25442273.3024   25442261.8754
        38.7004         34.4004
 107724439.5194   83941156.0184                   20499278.9614   20499272.0594
        55.6004         50.7004
 125606567.0644   97875270.4104                   23902134.4044   23902124.1414
        42.7004         36.9004
 135456567.3474  105550565.1564                   25776555.8704   25776543.8944
        39.7004         34.7004
 109005097.3244   84939063.2384                   20742985.4604   20742978.6694
        53.9004         47.3004
 129304529.2194  100756803.3154                   24605840.9324   24605831.3354
        44.0004         35.8004
 12 10 10 16 36 30.0000000  0 11G01G04G08G09G11G15G17G20G26G28G32
 118625808.6864   92435715.1584                   22573745.6444   22573733.9254
        46.8004         43.2004
 120478346.3364   93879261.5324                   22926262.6134   22926252.3774
        46.3004         38.8004
 121463979.1374   94647260.4794                   23113845.6984   23113835.8924
        44.0004         38.3004
 119405859.9714   93043526.9554                   22722183.6124   22722176.0994
        46.7004         39.9004
 126858279.9854   98850622.9804                   24140340.3594   24140330.1614
        40.8004         36.3004
 133765059.6884  104232514.9374                   25454665.5674   25454654.1934
        41.2004         34.9004
 107710487.7514   83930284.5104                   20496624.1634   20496616.6864
        55.2004         50.5004
 125543556.8504   97826171.5624                   23890142.9794   23890132.1764
        40.8004         37.7004
 135555321.3364  105627516.0434                   25795352.9254   25795338.0084
        36.0004         32.7004
 109025177.4234   84954710.0604                   20746806.6784   20746799.9714
        53.9004         47.2004
 129278283.6964  100736352.2464                   24600845.4494   24600834.6894
        42.0004         36.0004
 12 10 10 16 37  0.0000000  0 11G01G04G08G09G11G15G17G20G26G28G32
 118703854.6504   92496530.1694                   22588596.3964   22588586.3984
        47.3004         42.3004
 120366134.2914   93791823.6044                   22904908.3894   22904900.2414
        46.6004         37.7004
 121580280.5324   94737884.7864                   23135976.5604   23135968.1754
        44.6004         36.3004
 119327968.3154   92982832.1844                   22707361.2544   22707353.2084
        46.6004         40.3004
 126965596.3734   98934246.0204                   24160762.8754   24160753.2454
        40.6004         35.0004
 133830394.9464  104283425.3484                   25467094.5064   25467088.4034
        39.0004         35.1004
 107696868.5634   83919672.1544                   20494032.3134   20494025.1094
        55.3004         50.5004
 125480892.2034   97777342.0304                   23878216.8584   23878208.5814
        40.9004         36.9004
 135654038.1284  105704438.2094                   25814133.9604   25814120.7444
        39.0004         33.0004
 109045605.8294   84970628.2944                   20750693.9004   20750686.7544
        53.9004         47.4004
 129252516.5664  100716273.9744                   24595940.7554   24595934.2614
        43.5004         33.2004
 12 10 10 16 37 30.0000000  0 11G01G04G08G09G11G15G17G20G26G28G32
 118782294.9424   92557652.4384                   22603522.2504   22603512.3534
        47.0004         42.3004
 120254135.7844   93704552.0554                   22883595.7444   22883586.2124
        45.8004         38.3004
 121696789.4984   94828670.8604                   23158147.4654   23158138.1044
        43.7004         36.5004
 119250594.2704   92922540.7404                   22692637.5444   22692628.8344
        46.8004         40.3004
 127073079.0574   99017998.7424                   24181214.2184   24181208.0864
        41.6004         33.6004
 133895958.4514  104334513.6074                   25479573.8124   25479564.2094
        40.1004         35.8004
 107683581.7994   83909318.8304                   20491504.0784   20491496.6674
        55.6004         50.5004
 125418576.0054   97728784.0174                   23866359.0874   23866350.6514
        40.9004         36.8004
 135752715.0264  105781329.1184                   25832911.5264   25832900.7194
        38.6004         32.1004
 109066382.9464   84986818.2444                   20754647.5084   20754640.9524
        53.9004         47.1004
 129227229.4154  100696569.6784                   24591128.3744   24591119.3834
        41.6004         35.0004
 12 10 10 16 38  0.0000000  0 11G01G04G08G09G11G15G17G20G26G28G32
 118861126.8714   92619079.8744                   22618524.4064   22618514.8184
        47.9004         42.0004
 120142353.1834   93617448.7674                   22862325.5524   22862315.3014
        46.6004         38.3004
 121813502.9614   94919616.2434                   23180359.1034   23180348.9494
        43.6004         38.1004
 119173740.4334   92862654.6634                   22678013.8484   22678004.3444
        46.7004         40.9004
 127180725.6174   99101879.0174                   24201702.5884   24201688.4554
        39.0004         37.5004
 133961747.2414  104385777.4964                   25492093.9434   25492085.3234
        40.8004         32.8004
 107670626.7394   83899223.9714                   20489038.9174   20489031.7674
        55.8004         50.7004
 125356610.9434   97680499.5804                   23854568.2794   23854558.2524
        40.6004         37.1004
 135851348.7014  105858186.3904                   25851681.5964   25851668.3604
        37.2004         34.7004
 109087509.4594   85003280.4564                   20758667.9204   20758661.0634
        54.0004         47.0004
 129202423.7374  100677240.6144                   24586408.3124   24586399.0704
        40.6004         36.1004
 12 10 10 16 38 30.0000000  0 11G01G04G08G09G11G15G17G20G26G28G32
 118940347.9724   92680810.5564                   22633599.8624   22633590.6854
        48.3004         41.3004
 120030789.4294   93530516.0034                   22841095.6454   22841085.1074
        47.6004         39.2004
 121930418.1514   95010718.7784                   23202607.2374   23202596.9724
        43.6004         38.7004
 119097409.4624   92803176.0304                   22663489.1574   22663477.7394
        46.1004         41.3004
 127288533.6344   99185885.1774                   24222213.1104   24222206.3294
        41.3004         35.6004
 134027758.6524  104437214.9234                   25504654.8154   25504645.6304
        42.2004         32.3004
 107658003.0974   83889387.3674                   20486636.7004   20486628.8964
        55.7004         50.6004
 125294999.8464   97632490.9984                   23842842.0554   23842833.8304
        40.6004         36.8004
 135949936.1634  105935007.7064                   25870442.5764   25870428.5444
        39.3004         33.2004
 109108986.2064   85020015.5734                   20762755.2164   20762748.0734
        53.8004         47.2004
 129178101.3574  100658288.1104                   24581780.4924   24581769.7734
        39.9004         35.8004
 12 10 10 16 39  0.0000000  0 11G01G04G08G09G11G15G17G20G26G28G32
 119019955.6604   92742842.4744                   22648749.6604   22648737.7344
        47.0004         42.3004
 119919446.9524   93443755.6544                   22819908.6344   22819898.1074
        47.5004         38.5004
 122047531.7394   95101975.9084                   23224894.1064   23224884.2414
        44.1004         39.0004
 119021604.2874   92744107.0794                   22649063.0104   22649055.5834
        47.6004         40.2004
 127396500.6564   99270015.2394                   24242761.2944   24242750.8034
        38.8004         36.4004
 134093989.9894  104488823.6004                   25517255.1564   25517245.7104
        37.6004         35.5004
 107645710.5764   83879808.7744                   20484297.3694   20484290.1464
        55.9004         50.6004
 125233745.4464   97584760.3774                   23831186.3584   23831178.3944
        41.9004         37.5004
 136048474.5284  106011790.7784                   25889193.7864   25889181.0724
        40.4004         32.8004
 109130813.5124   85037023.8584                   20766908.4544   20766901.9424
        54.3004         46.8004
 129154263.7364  100639713.3684                   24577245.0234   24577237.0574
        41.9004         35.5004
 12 10 10 16 39 30.0000000  0 11G01G04G08G09G11G15G17G20G26G28G32
 119099947.3844   92805173.6264                   22663970.7404   22663960.4164
        46.9004         42.0004
 119808328.4674   93357169.8684                   22798763.0884   22798753.5014
        47.3004         37.8004
 122164840.7084   95193385.2864                   23247217.7504   23247206.8044
        44.2004         38.4004
 118946327.7394   92685450.0254                   22634737.5484   22634728.7764
        46.8004         40.8004
 127504623.9684   99354267.0674                   24263336.8724   24263330.0184
        43.8004         33.8004
 134160438.0214  104540601.0924                   25529902.6204   25529892.7194
        41.5004         36.0004
 107633748.7354   83870487.8554                   20482021.0924   20482013.4994
        55.7004         50.8004
 125172850.5974   97537309.9034                   23819600.3594   23819590.2474
        41.4004         37.7004
 136146960.5824  106088533.1964                   25907935.8334   25907922.4924
        40.1004         26.8004
 109152991.8904   85054305.7004                   20771128.4424   20771122.0554
        53.9004         46.8004
 129130912.2914  100621517.4814                   24572802.6934   24572789.4074
        39.8004         36.2004
 12 10 10 16 40  0.0000000  0 11G01G04G08G09G11G15G17G20G26G28G32
 119180320.7454   92867802.2004                   22679266.0274   22679254.6204
        47.1004         42.6004
 119697436.7704   93270760.7844                   22777660.3544   22777650.3624
        47.3004         38.8004
 122282342.2114   95284944.7354                   23269575.7364   23269566.7394
        43.1004         35.5004
 118871582.8344   92627207.2454                   22620513.5334   22620505.1364
        46.1004         40.9004
 127612901.6804   99438639.2054                   24283939.1424   24283934.1984
        40.7004         32.9004
 134227100.3274  104592545.6214                   25542586.3084   25542577.5944
        41.7004         34.0004
 107622117.4914   83861424.5464                   20479808.0954   20479800.4344
        55.6004         50.9004
 125112318.2294   97490141.8804                   23808079.9874   23808070.7174
        41.4004         37.6004
 136245391.8124  106165232.7394                   25926666.3284   25926653.0944
        38.6004         31.2004
 109175522.2864   85071861.8454                   20775415.7374   20775409.6944
        54.0004         46.8004
 129108048.9874  100603701.9054                   24568449.4024   24568443.0164
        42.2004         34.5004
 12 10 10 16 40 30.0000000  0 11G01G04G08G09G11G15G17G20G26G28G32
 119261072.8914   92930725.9014                   22694633.1254   22694621.3354
        46.7004         43.0004
 119586774.4394   93184530.4374                   22756601.1314   22756592.8884
        47.3004         38.1004
 122400032.8794   95376651.5944                   23291972.0204   23291962.3004
        42.2004         34.1004
 118797371.9324   92569380.5804                   22606390.8404   22606384.5834
        46.2004         39.7004
 127721330.8714   99523129.4044                   24304575.7404   24304566.4804
        41.9004         36.0004
 134293973.9134  104644654.8654                   25555312.0964   25555300.8464
        37.3004         33.3004
 107610815.7454   83852617.9864                   20477657.5724   20477650.4104
        55.9004         50.8004
 125052150.9494   97443258.3414                   23796630.4504   23796621.9394
        41.7004         37.7004
 136343765.0264  106241887.0684                   25945383.4424   25945373.2584
        39.4004         26.3004
 109198404.8744   85089692.4314                   20779770.5074   20779763.5584
        53.9004         46.8004
 129085674.7584  100586267.4754                   24564193.0284   24564182.7194
        41.4004         35.7004
 12 10 10 16 41  0.0000000  0 11G01G04G08G09G11G15G17G20G26G28G32
 119342201.3404   92993942.8394                   22710070.8844   22710059.6704
        46.8004         42.6004
 119476343.8814   93098480.6844                   22735586.8694   22735576.6674
        46.8004         38.9004
 122517910.1154   95468503.8094                   23314403.8084   23314393.9594
        42.3004         37.1004
 118723697.9304   92511972.2734                   22592371.3274   22592361.5154
        44.6004         41.5004
 127829909.2074   99607735.7954                   24325234.8684   24325228.1154
        39.4004         34.1004
 134361056.2524  104696926.6414                   25568077.3464   25568069.4054
        38.5004         36.7004
 107599843.5094   83844068.1844                   20475569.5294   20475562.4744
        56.1004         51.3004
 124992351.7884   97396661.6334                   23785251.0214   23785244.7794
        42.4004         36.5004
 136442077.2904  106318494.1984                   25964091.3034   25964080.1574
        37.7004         29.7004
 109221640.5394   85107798.1264                   20784192.2544   20784185.3214
        53.6004         46.9004
 129063791.2654  100569215.4464                   24560028.6234   24560017.0344
        40.6004         36.0004
 12 10 10 16 41 30.0000000  0 11G01G04G08G09G11G15G17G20G26G28G32
 119423703.4184   93057450.9094                   22725580.0544   22725567.8784
        46.2004         41.6004
 119366147.8004   93012613.6554                   22714617.9144   22714608.3104
        48.3004         38.5004
 122635970.7634   95560498.9384                   23336870.8224   23336859.2544
        43.1004         38.2004
 118650563.3354   92454984.3154                   22578455.1404   22578444.6374
        45.2004         41.2004
 127938634.4564   99692456.6974                   24345925.5774   24345918.0464
        42.2004         36.1004
 134428344.0514  104749358.5524                   25580883.1774   25580873.8754
        38.6004         36.7004
 107589200.0314   83835774.5584                   20473543.9064   20473537.1464
        56.4004         50.7004
 124932922.6514   97350353.2824                   23773942.5224   23773933.5534
        41.7004         37.7004
 136540325.5234  106395051.1524                   25982792.0304   25982775.0474
        36.9004         32.7004
 109245229.4324   85126179.0794                   20788681.1364   20788674.2654
        53.7004         47.0004
 129042399.9474  100552546.9154                   24555957.1134   24555947.8764
        41.5004         34.9004
 12 10 10 16 42  0.0000000  0 11G01G04G08G09G11G15G17G20G26G28G32
 119505576.6914   93121248.2394                   22741159.4924   22741148.9534
        46.3004         41.4004
 119256188.9374   92926931.4724                   22693693.8014   22693684.4024
        48.6004         39.5004
 122754211.8654   95652634.6534                   23359371.8714   23359359.1934
        43.2004         39.5004
 118577971.0144   92398418.9024                   22564641.5154   22564631.7434
        46.1004         41.0004
 128047504.3434   99777290.2434                   24366642.9914   24366634.5564
        39.2004         35.6004
 134495834.8834  104801948.6454                   25593727.7194   25593715.3324
        38.8004         38.9004
 107578885.2324   83827737.0394                   20471581.0544   20471573.6054
        55.8004         50.8004
 124873866.7404   97304335.7654                   23762704.7714   23762696.6584
        42.4004         37.8004
 136638507.1794  106471556.2564                   26001475.2174   26001458.3534
        36.8004         33.3004
 109269172.3844   85144835.9094                   20793237.4584   20793230.7594
        54.2004         47.0004
 129021502.4194  100536263.1094                   24551979.1434   24551971.9334
        42.2004         33.9004
 12 10 10 16 42 30.0000000  0 11G01G04G08G09G11G15G17G20G26G28G32
 119587818.7194   93185332.8904                   22756809.6484   22756798.5064
        45.4004         41.6004
 119146470.0904   92841436.3344                   22672814.9384   22672804.2894
        47.3004         39.7004
 122872630.6564   95744908.8304                   23381906.0044   23381895.1174
        43.4004         38.6004
 118505923.8614   92342278.2754                   22550931.7154   22550922.2484
        46.9004         40.6004
 128156516.2414   99862234.4464                   24387388.2844   24387380.3684
        41.1004         36.2004
 134563525.8704  104854694.7474                   25606609.5354   25606593.7724
        36.9004         37.2004
 107568898.8504   83819955.4334                   20469680.9104   20469673.3494
        55.9004         50.8004
 124815186.9954   97258611.3704                   23751538.3884   23751529.2634
        42.2004         38.9004
 136736619.1794  106548007.2874                   26020147.5874   26020132.1144
        36.3004         30.6004
 109293469.8534   85163768.9914                   20797861.0824   20797854.1274
        53.8004         47.0004
 129001100.0874  100520365.1804                   24548094.8374   24548087.1144
        40.0004         34.3004
 12 10 10 16 43  0.0000000  0 11G01G04G08G09G11G15G17G20G26G28G32
 119670426.5434   93249702.5904                   22772530.3504   22772519.0584
        45.2004         42.6004
 119036993.4664   92756129.9534                   22651981.9334   22651970.6294
        47.3004         40.2004
 122991223.6964   95837318.7814                   23404473.6734   23404462.9274
        43.2004         38.0004
 118434424.1214   92286564.2114                   22537326.2494   22537318.1694
        48.1004         40.8004
 128265667.6554   99947287.4054                   24408159.5734   24408148.1544
        38.3004         34.7004
 134631414.0804  104907594.5274                   25619527.6324   25619514.6334
        37.1004         32.8004
 107559239.9894   83812429.0414                   20467842.9614   20467835.5164
        55.8004         51.3004
 124756885.8984   97213182.0064                   23740445.1144   23740435.7574
        42.8004         39.6004
 136834658.8454  106624401.6624                   26038799.6304   26038784.1274
        28.8004         37.3004
 109318122.3804   85182978.7434                   20802551.8964   20802544.7064
        53.6004         47.0004
 128981194.1254  100504854.0414                   24544311.0784   24544301.0784
        41.3004         35.1004
 12 10 10 16 43 30.0000000  0 11G01G04G08G09G11G15G17G20G26G28G32
 119753397.8124   93314355.4814                   22788319.0134   22788307.0554
        44.9004         42.3004
 118927762.3564   92671014.8464                   22631195.0554   22631185.4634
        48.0004         39.0004
 123109988.3994   95929862.5124                   23427072.9884   23427062.6654
        42.9004         36.8004
 118363474.8194   92231279.0654                   22523824.5104   22523816.4074
        48.0004         40.7004
 128374956.3634  100032447.3154                   24428954.6204   24428948.4024
        41.5004         35.2004
 134699496.8404  104960645.8724                   25632484.8674   25632472.3264
        38.9004         35.7004
 107549908.5764   83805157.8124                   20466067.2604   20466059.9104
        56.0004         50.9004
 124698966.3964   97168049.9924                   23729420.9914   23729412.9514
        43.1004         38.3004
 136932623.0384  106700737.4614                   26057439.7254   26057427.3674
        32.8004         32.1004
 109343130.7824   85202465.7984                   20807310.7694   20807304.1044
        53.9004         46.6004
 128961786.1614  100489731.0184                   24540617.7464   24540605.9494
        41.0004         37.2004
 12 10 10 16 44  0.0000000  0 11G01G04G08G09G11G15G17G20G26G28G32
 119836729.9144   93379289.5684                   22804176.3534   22804164.0634
        44.5004         41.9004
 118818778.9464   92586092.7584                   22610455.8214   22610447.3724
        48.6004         39.6004
 123228921.6614   96022537.5784                   23449705.3354   23449696.3484
        43.8004         37.6004
 118293078.3934   92176424.7474                   22510427.3434   22510421.2534
        48.3004         40.0004
 128484379.9654  100117712.3874                   24449777.1774   24449771.0904
        39.9004         34.7004
 134767771.1814  105013846.5674                   25645477.1574   25645465.4844
        40.6004         32.9004
 107540904.1994   83798141.4074                   20464353.7414   20464346.0234
        55.7004         51.3004
 124641431.0204   97123217.2794                   23718472.0314   23718464.1304
        42.7004         38.5004
 137030509.0774  106777012.1744                   26076068.9074   26076055.9994
        37.7004         35.3004
 109368495.1424   85222230.2244                   20812137.7674   20812130.7424
        53.8004         46.7004
 128942877.5514  100474997.0504                   24537019.6774   24537008.0234
        42.0004         36.1004
 12 10 10 16 44 30.0000000  0 11G01G04G08G09G11G15G17G20G26G28G32
 119920420.1034   93444502.6634                   22820103.1204   22820091.4124
        45.3004         41.7004
 118710045.7154   92501365.6304                   22589764.0254   22589754.7734
        47.7004         40.2004
 123348020.2194   96115341.4424                   23472371.1984   23472358.7674
        43.2004         38.1004
 118223237.4034   92122003.1964                   22497136.5134   22497130.5904
        48.3004         39.5004
 128593936.3064  100203080.8594                   24470625.8324   24470618.9814
        40.9004         35.4004
 134836234.2734  105067194.3344                   25658500.6174   25658494.2694
        39.9004         32.0004
 107532225.9734   83791379.1474                   20462702.2894   20462694.4234
        55.7004         51.1004
 124584282.4744   97078685.9614                   23707597.4764   23707590.3224
        43.5004         38.7004
 137128313.6884  106853223.5084                   26094682.1624   26094666.0434
        38.0004         34.4004
 109394216.0504   85242272.4784                   20817032.3974   20817025.3334
        53.8004         46.4004
 128924469.4544  100460653.0694                   24533515.6354   24533506.3624
        42.0004         35.6004
 12 10 10 16 45  0.0000000  0 11G01G04G08G09G11G15G17G20G26G28G32
 120004465.9064   93509992.8564                   22836096.4584   22836085.4444
        45.3004         41.3004
 118601565.5284   92416835.6754                   22569121.5874   22569112.3594
        47.8004         40.0004
 123467281.0734   96208271.7724                   23495065.2314   23495052.7614
        41.6004         37.7004
 118153954.5634   92068016.5904                   22483952.2724   22483944.0694
        46.6004         40.5004
 128703622.6334  100288550.6074                   24491498.9174   24491487.8814
        37.5004         36.6004
 134904883.7054  105120687.2904                   25671570.6894   25671556.0074
        36.8004         33.4004
 107523873.8324   83784870.9894                   20461112.8224   20461105.1394
        55.6004         50.9004
 124527523.3284   97034458.1414                   23696797.7164   23696789.1024
        43.6004         38.2004
 137226034.4884  106929369.4204                   26113277.4874   26113263.2024
        38.6004         35.2004
 109420294.2384   85262593.1404                   20821994.5464   20821987.4924
        53.6004         46.4004
 128906563.2804  100446700.1644                   24530110.1344   24530099.1894
        41.7004         36.6004
 12 10 10 16 45 30.0000000  0 11G01G04G08G09G11G15G17G20G26G28G32
 120088864.5444   93575758.0144                   22852156.9874   22852145.4764
        45.0004         40.9004
 118493340.7324   92332504.7354                   22548526.9584   22548519.2084
        48.4004         39.6004
 123586701.2324   96301326.2214                   23517790.4204   23517779.4764
        43.1004         38.2004
 118085232.2894   92014466.7914                   22470875.0734   22470868.0114
        47.5004         39.9004
 128813436.7094  100374119.9144                   24512396.5974   24512386.0074
        38.4004         36.7004
 134973716.1074  105174322.7754                   25684668.9674   25684652.4854
        34.6004         37.1004
 107515847.0544   83778616.3464                   20459585.5494   20459578.3944
        56.2004         50.7004
 124471156.0324   96990535.6344                   23686070.5204   23686062.1674
        44.2004         38.5004
 137323668.7184  107005447.9994                   26131854.1924   26131843.2564
        40.2004         31.9004
 109446729.8704   85283192.3174                   20827025.7784   20827018.9454
        53.8004         47.2004
 128889160.1664  100433139.3604                   24526796.9034   24526787.6484
        41.9004         37.3004
 12 10 10 16 46  0.0000000  0 11G01G04G08G09G11G15G17G20G26G28G32
 120173613.6754   93641796.2354                   22868283.0914   22868270.8744
        43.9004         42.4004
 118385374.3144   92248375.1344                   22527982.5484   22527973.1264
        47.9004         40.6004
 123706278.0094   96394502.7104                   23540544.4694   23540533.8434
        42.6004         39.1004
 118017073.5834   91961356.1464                   22457905.3484   22457896.4794
        46.9004         40.3004
 128923376.2374  100459786.9244                   24533317.1204   24533305.9294
        36.9004         36.1004
 135042728.7574  105228098.7074                   25697799.6274   25697785.8644
        36.6004         37.5004
 107508145.2794   83772614.9604                   20458120.2294   20458112.6664
        56.1004         50.8004
 124415183.4894   96946920.7174                   23675419.3934   23675411.3494
        44.5004         39.0004
 137421213.8414  107081457.1834                   26150421.1384   26150405.2814
        38.2004         32.4004
 109473523.7444   85304070.6434                   20832124.6684   20832117.2414
        53.7004         47.3004
 128872261.6574  100419971.7324                   24523580.5314   24523570.7164
        40.0004         36.4004
 12 10 10 16 46 30.0000000  0 11G01G04G08G09G11G15G17G20G26G28G32
 120258710.7414   93708105.5954                   22884476.7694   22884465.6374
        44.6004         41.7004
 118277668.7944   92164448.8494                   22507486.4584   22507477.0694
        47.9004         40.3004
 123826008.4924   96487798.9574                   23563330.1014   23563317.2064
        42.1004         39.8004
 117949481.1294   91908686.7264                   22445043.4694   22445033.7794
        46.7004         40.9004
 129033439.0614  100545550.0844                   24554261.4344   24554251.5064
        38.9004         35.8004
 135111919.0934  105282013.0834                   25710966.1784   25710952.4864
        36.0004         37.7004
 107500768.4364   83766866.7684                   20456716.3044   20456708.7264
        56.0004         50.8004
 124359608.5064   96903615.6034                   23664843.9444   23664836.2904
        44.6004         37.9004
 137518666.9074  107157394.6004                   26168962.0784   26168950.1544
        39.3004         31.8004
 109500676.5154   85325228.6354                   20837291.1574   20837284.4554
        54.1004         46.9004
 128855869.0154  100407198.2394                   24520460.1534   24520449.5344
        39.4004         33.3004
 12 10 10 16 47  0.0000000  0 11G01G04G08G09G11G15G17G20G26G28G32
 120344152.7474   93774683.7324                   22900735.9194   22900726.8594
        45.9004         41.2004
 118170226.7284   92080727.8174                   22487040.8634   22487030.5674
        47.5004         40.6004
 123945889.4114   96581212.3964                   23586141.8364   23586130.0614
        41.6004         38.9004
 117882457.1924   91856460.2964                   22432288.9164   22432280.2344
        47.2004         40.9004
 129143622.7434  100631407.3834                   24575229.6984   24575217.4884
        37.7004         36.8004
 135181283.9644  105336063.5584                   25724167.4684   25724152.2344
        36.8004         33.9004
 107493715.7794   83761371.1884                   20455374.4514   20455366.0704
        55.7004         51.1004
 124304433.0824   96860621.7914                   23654343.5804   23654336.1364
        44.9004         37.7004
 137616024.6904  107233257.7134                   26187486.2564   26187475.5784
        36.4004         32.5004
 109528188.2394   85346666.3324                   20842526.2084   20842519.7344
        53.7004         47.0004
 128839983.1794  100394819.6714                   24517436.7894   24517428.9684
        40.5004         33.2004
 12 10 10 16 47 30.0000000  0 10G01G04G08G09G11G15G17G20G28G32
 120429937.2914   93841528.8144                   22917061.2594   22917049.0134
        44.7004         42.0004
 118063050.5534   91997213.9874                   22466646.5214   22466635.4584
        47.3004         40.7004
 124065917.5614   96674740.5774                   23608983.3214   23608970.4124
        41.5004         37.8004
 117816004.2604   91804678.8174                   22419644.2124   22419635.3654
        47.5004         40.9004
 129253924.6244  100717356.8334                   24596218.3694   24596208.5894
        38.4004         35.7004
 135250820.8794  105390248.0724                   25737396.0274   25737386.9644
        38.1004         34.9004
 107486986.8544   83756127.8634                   20454094.2854   20454086.3104
        56.1004         50.8004
 124249660.2924   96817941.7344                   23643920.8624   23643913.9384
        44.9004         37.5004
 109556059.3384   85368384.0584                   20847830.1804   20847822.7094
        53.8004         47.1004
 128824605.5444  100382837.0834                   24514511.7784   24514502.0144
        39.8004         33.5004
 12 10 10 16 48  0.0000000  0 10G01G04G08G09G11G15G17G20G28G32
 120516061.8094   93908638.7734                   22933449.3744   22933437.6334
        44.6004         41.9004
 117956143.1304   91913909.5734                   22446302.0694   22446291.5164
        47.5004         40.6004
 124186090.2534   96768381.4184                   23631850.5334   23631838.8564
        42.9004         34.3004
 117750124.7544   91753344.1524                   22407107.6944   22407098.7644
        47.5004         40.4004
 129364342.6674  100803396.7524                   24617232.6744   24617222.1694
        38.3004         35.8004
 135320526.8064  105444564.2094                   25750662.0754   25750651.9434
        39.6004         34.8004
 107480581.1644   83751136.4204                   20452875.0554   20452867.5314
        56.3004         50.7004
 124195292.7024   96775577.4244                   23633575.3894   23633568.2624
        45.2004         37.1004
 109584290.4674   85390382.3304                   20853202.0454   20853195.6194
        53.9004         46.5004
 128809737.1874  100371251.3384                   24511684.5084   24511671.2784
        39.4004         35.5004
 12 10 10 16 48 30.0000000  0 10G01G04G08G09G11G15G17G20G28G32
 120602523.5994   93976011.5544                   22949903.0244   22949890.6204
        44.6004         42.8004
 117849506.9424   91830816.5424                   22426010.5054   22426000.2014
        48.1004         41.1004
 124306404.3504   96862132.5314                   23654744.8104   23654734.8864
        43.3004         34.7004
 117684821.1504   91702458.2564                   22394680.6104   22394671.9224
        47.6004         41.1004
 129474874.8074  100889525.5764                   24638264.5994   24638256.6464
        38.4004         34.1004
 135390399.1064  105499010.0664                   25763954.4664   25763946.7874
        37.5004         33.5004
 107474498.4224   83746396.6114                   20451717.3564   20451710.2714
        56.2004         50.8004
 124141333.0044   96733530.9484                   23623307.9514   23623298.6854
        44.4004         38.8004
 109612881.9934   85412661.4314                   20858642.8274   20858636.5014
        53.9004         46.3004
 128795379.5404  100360063.5654                   24508951.4384   24508941.5284
        40.9004         35.4004
 12 10 10 16 49  0.0000000  0 10G01G04G08G09G11G15G17G20G28G32
 120689319.8894   94043644.9794                   22966420.1464   22966409.1714
        45.3004         41.8004
 117743144.4224   91747936.7214                   22405769.4384   22405758.1014
        47.6004         41.5004
 124426856.5474   96955991.1824                   23677668.2824   23677655.6134
        42.4004         37.8004
 117620095.8854   91652022.9814                   22382364.0004   22382356.3984
        48.2004         41.2004
 129585518.2124  100975741.0834                   24659319.6784   24659311.0564
        38.2004         34.8004
 135460434.6724  105553583.1954                   25777287.3044   25777275.1034
        38.6004         32.9004
 107468737.8884   83741907.8804                   20450620.9174   20450613.7354
        55.9004         50.9004
 124087783.4204   96691804.0294                   23613116.6584   23613109.1614
        44.7004         38.5004
 109641834.4484   85435221.7684                   20864152.1044   20864146.0354
        54.0004         46.2004
 128781533.4094  100349274.3584                   24506315.8524   24506306.0174
        41.2004         36.8004
 12 10 10 16 49 30.0000000  0 10G01G04G08G09G11G15G17G20G28G32
 120776448.4044   94111537.2854                   22983000.3094   22982988.5844
        45.2004         42.6004
 117637058.3614   91665272.3244                   22385582.1754   22385572.8154
        48.8004         40.5004
 124547444.3354   97049955.4444                   23700616.5934   23700604.0984
        42.9004         39.2004
 117555951.7114   91602040.5154                   22370157.6044   22370149.9104
        48.4004         41.1004
 129696270.9234  101062041.8344                   24680396.1544   24680384.6364
        38.7004         35.2004
 135530630.8924  105608281.4294                   25790643.4154   25790630.5414
        36.6004         34.0004
 107463299.5224   83737670.1934                   20449585.9554   20449578.6084
        56.0004         51.0004
 124034646.7724   96650398.8644                   23603004.8634   23602997.0834
        44.1004         39.0004
 109671148.5474   85458063.9054                   20869730.6564   20869724.0184
        53.5004         46.5004
 128768200.2704  100338884.8604                   24503780.3324   24503767.3394
        40.3004         38.0004
 12 10 10 16 50  0.0000000  0 10G01G04G08G09G11G15G17G20G28G32
 120863906.2844   94179686.2334                   22999642.2304   22999630.0004
        43.9004         43.1004
 117531251.1614   91582825.2334                   22365448.2724   22365437.6984
        48.3004         40.9004
 124668164.6714   97144022.9634                   23723588.9434   23723576.4034
        42.4004         39.8004
 117492390.9394   91552512.6514                   22358062.3404   22358054.1284
        47.6004         42.0004
 129807130.7094  101148425.9894                   24701491.6204   24701480.6704
        37.3004         35.8004
 135600984.7404  105663102.5264                   25804030.3494   25804021.1984
        37.2004         35.1004
 107458182.3864   83733682.8124                   20448612.3554   20448605.2954
        55.8004         50.9004
 123981925.5244   96609317.4144                   23592972.5024   23592963.5064
        42.9004         39.7004
 109700824.2364   85481187.8054                   20875378.1044   20875371.0254
        53.6004         46.5004
 128755380.9714  100328895.8284                   24501339.1944   24501328.2344
        40.8004         37.6004
 12 10 10 16 50 30.0000000  0 10G01G04G08G09G11G15G17G20G28G32
 120951690.8234   94248089.7194                   23016346.9234   23016332.4734
        43.3004         43.6004
 117425725.4934   91500597.5074                   22345367.1354   22345356.0284
        48.3004         41.2004
 124789014.2014   97238191.1664                   23746585.0614   23746573.5074
        43.3004         38.3004
 117429415.8344   91503441.1534                   22346079.4044   22346070.6624
        48.2004         41.3004
 129918095.0904  101234891.6394                   24722608.1984   24722594.6904
        36.8004         34.7004
 135671493.6234  105718044.4244                   25817450.1344   25817436.0314
        35.7004         32.2004
 107453386.1134   83729945.4564                   20447699.7124   20447692.1944
        55.9004         50.7004
 123929622.2394   96568561.6254                   23583020.0534   23583010.8724
        43.1004         39.7004
 109730861.8544   85504593.7294                   20881093.9474   20881087.0804
        53.7004         46.8004
 128743076.5014  100319307.9444                   24498998.5764   24498989.1034
        41.7004         35.6004
 12 10 10 16 51  0.0000000  0 10G01G04G08G09G11G15G17G20G28G32
 121039799.7894   94316746.0184                   23033114.0504   23033102.6504
        45.3004         42.2004
 117320484.3864   91418591.5054                   22325339.3114   22325328.4254
        47.9004         40.7004
 124909990.4064   97332458.0894                   23769606.2714   23769594.7194
        44.2004         35.5004
 117367029.1694   91454828.1944                   22334207.3444   22334197.2964
        47.9004         42.2004
 130029162.1524  101321437.2674                   24743742.2064   24743733.6744
        37.8004         34.3004
 135742154.9984  105773105.0944                   25830897.7314   25830885.8204
        40.9004         36.5004
 107448910.4614   83726457.9364                   20446848.0444   20446840.7014
        56.2004         50.7004
 123877739.5774   96528133.6404                   23573147.4784   23573138.5104
        44.2004         38.2004
 109761262.5204   85528282.5404                   20886879.1714   20886872.7224
        54.1004         46.5004
 128731288.4254  100310122.4654                   24496756.3564   24496744.8384
        40.8004         37.1004
 12 10 10 16 51 30.0000000  0 10G01G04G08G09G11G15G17G20G28G32
 121128230.1924   94385652.7754                   23049942.2014   23049931.7194
        45.7004         41.3004
 117215529.8404   91336808.8154                   22305367.0874   22305356.3374
        48.4004         41.2004
 125031089.8894   97426821.1134                   23792650.0894   23792639.6794
        43.6004         33.5004
 117305233.0064   91406675.3604                   22322447.7004   22322436.4484
        47.1004         42.8004
 130140329.1264  101408060.7794                   24764897.6814   24764887.3494
        38.3004         34.6004
 135812965.4144  105828281.9414                   25844372.4084   25844360.6484
        37.2004         32.9004
 107444754.5214   83723219.5444                   20446057.1474   20446049.3964
        56.0004         50.7004
 123826279.5794   96488034.9374                   23563354.0454   23563346.1124
        43.6004         38.7004
 109792025.9634   85552254.0384                   20892733.5154   20892726.5154
        54.0004         46.5004
 128720017.2884  100301339.7394                   24494610.1164   24494599.8364
        41.1004         36.6004
 12 10 10 16 52  0.0000000  0 10G01G04G08G09G11G15G17G20G28G32
 121216979.4864   94454808.0144                   23066830.2524   23066817.6274
        43.4004         43.3004
 117110864.4874   91255251.4464                   22285449.8404   22285439.9474
        48.2004         41.7004
 125152309.9324   97521278.1144                   23815716.0654   23815704.7664
        41.2004         31.8004
 117244029.7974   91358984.5764                   22310801.5204   22310790.3984
        47.2004         43.6004
 130251594.0764  101494760.5984                   24786069.3224   24786060.5414
        38.7004         32.7004
 135883922.1834  105883572.8684                   25857872.9924   25857861.8684
        38.0004         33.6004
 107440918.5034   83720230.4374                   20445327.0694   20445319.8174
        55.6004         51.2004
 123775245.2574   96448267.9464                   23553642.8954   23553635.0344
        42.9004         38.8004
 109823152.7164   85576508.6364                   20898656.6554   20898649.9194
        54.3004         46.5004
 128709264.1124  100292960.6544                   24492561.8064   24492550.2854
        38.4004         35.3004
 12 10 10 16 52 30.0000000  0 10G01G04G08G09G11G15G17G20G28G32
 121306045.2534   94524209.8744                   23083779.1164   23083768.8594
        45.4004         41.5004
 117006491.2314   91173921.7074                   22265588.4904   22265577.6314
        48.0004         41.9004
 125273647.6994   97615826.8264                   23838806.1754   23838797.3914
        42.8004         33.6004
 117183422.0554   91311757.7764                   22299268.2474   22299258.8824
        48.8004         42.2004
 130362955.0194  101581535.2874                   24807262.0454   24807251.4424
        38.0004         35.4004
 135955023.1244  105938976.1494                   25871400.7334   25871392.2784
        38.1004         35.3004
 107437401.8784   83717490.2044                   20444657.7504   20444649.9864
        55.8004         51.1004
 123724639.0304   96408834.5574                   23544013.5114   23544006.0664
        43.6004         38.2004
 109854643.4164   85601046.8254                   20904649.0254   20904641.8494
        53.6004         46.9004
 128699030.4854  100284986.3894                   24490614.9514   24490608.0204
        41.0004         34.2004
 12 10 10 16 53  0.0000000  0 10G01G04G08G09G11G15G17G20G28G32
 121395424.5034   94593855.9954                   23100787.7954   23100777.0764
        44.6004         41.9004
 116902412.1724   91092821.2054                   22245782.1624   22245771.9434
        47.6004         41.3004
 125395099.8024   97710464.5804                   23861920.2674   23861909.7814
        43.8004         36.4004
 117123411.7274   91264996.4794                   22287848.6124   22287839.7734
        49.1004         41.8004
 130474409.1734  101668382.5734                   24828469.1844   24828459.1064
        37.0004         33.0004
 136026264.8454  105994489.0264                   25884960.2574   25884947.7224
        36.4004         35.0004
 107434203.6474   83714998.0794                   20444048.8764   20444041.6574
        55.9004         51.1004
 123674462.9734   96369736.3804                   23534465.1124   23534455.0494
        41.7004         39.7004
 109886497.9184   85625868.4924                   20910710.9724   20910703.6984
        53.6004         46.9004
 128689316.5994  100277417.1694                   24488765.8194   24488759.3404
        41.2004         34.1004
 12 10 10 16 53 30.0000000  0 10G01G04G08G09G11G15G17G20G28G32
 121485114.6144   94663744.3444                   23117855.2434   23117842.7594
        43.5004         42.5004
 116798630.0394   91011952.0714                   22226033.2754   22226022.7074
        47.8004         41.8004
 125516663.2914   97805189.1064                   23885053.4384   23885043.1094
        44.2004         38.2004
 117064000.9254   91218702.3504                   22276542.2914   22276534.9464
        49.5004         41.5004
 130585954.3004  101755300.7374                   24849693.5354   24849690.4544
        39.8004         31.3004
 136097644.4824  106050109.4954                   25898542.4994   25898534.1024
        36.7004         30.9004
 107431323.2614   83712753.6204                   20443501.0064   20443493.8114
        56.0004         51.0004
 123624719.6074   96330975.3354                   23524998.2334   23524989.6044
        42.9004         39.3004
 109918716.8904   85650974.1654                   20916842.2244   20916834.6914
        53.8004         46.6004
 128680123.5614  100270253.7874                   24487017.5444   24487004.9944
        39.9004         34.4004
 12 10 10 16 54  0.0000000  0 10G01G04G08G09G11G15G17G20G28G32
 121575113.1544   94733873.0244                   23134981.2444   23134968.9024
        43.5004         42.4004
 116695147.3164   90931316.2254                   22206341.2804   22206331.8054
        48.4004         41.0004
 125638335.7084   97899998.5264                   23908207.0594   23908195.9224
        43.4004         37.9004
 117005192.2084   91172877.3894                   22265351.7414   22265343.7854
        49.5004         41.7004
 130697588.5024  101842288.2914                   24870940.2834   24870930.9174
        37.5004         35.6004
 136169159.6744  106105835.5654                   25912153.2444   25912142.7994
        35.1004         32.2004
 107428760.6674   83710756.7954                   20443013.7904   20443005.9944
        56.0004         51.4004
 123575411.6764   96292553.5854                   23515615.0584   23515605.8434
        42.9004         40.2004
 109951300.5554   85676364.0134                   20923042.3534   20923035.2694
        53.8004         46.2004
 128671452.4534  100263497.0264                   24485364.3164   24485359.7554
        42.1004         34.0004
 12 10 10 16 54 30.0000000  0 11G01G02G04G08G09G11G15G17G20G28G32
 121665417.5344   94804240.0354                   23152165.3474   23152151.0314
        41.9004         43.1004
 135607443.9124  105668150.5934                   25805252.8444   25805238.2994
        37.8004         34.0004
 116591966.8004   90850915.8744                   22186707.2214   22186697.9334
        49.2004         41.7004
 125760113.7534   97994890.2304                   23931380.4724   23931368.8494
        41.8004         36.5004
 116946988.1284   91127523.5904                   22254275.4254   22254267.0364
        49.0004         42.0004
 130809309.7824  101929343.7174                   24892200.3494   24892191.5614
        39.2004         33.8004
 136240807.5174  106161664.9474                   25925786.5644   25925781.6834
        36.8004         26.2004
 107426515.5214   83709007.3274                   20442586.7614   20442579.1884
        55.8004         51.5004
 123526541.5884   96254472.9854                   23506316.5684   23506308.7084
        43.5004         39.0004
 109984249.8034   85702038.7264                   20929312.2944   20929305.9274
        53.7004         46.1004
 128663304.2894  100257147.7574                   24483814.0834   24483810.4174
        42.8004         34.3004
 12 10 10 16 55  0.0000000  0 11G01G02G04G08G09G11G15G17G20G28G32
 121756025.0364   94874843.2154                   23169407.6984   23169395.7524
        42.8004         42.4004
 135501351.0124  105585481.1384                   25785061.2624   25785048.5594
        33.5004         31.7004
 116489090.7994   90770752.8004                   22167129.7014   22167120.6644
        48.8004         41.9004
 125881994.0384   98089861.6394                   23954572.5974   23954561.0834
        41.7004         34.3004
 116889390.5744   91082642.3914                   22243314.4844   22243306.8064
        48.6004         41.2004
 130921115.3794  102016464.8894                   24913475.6324   24913466.2364
        38.1004         34.2004
 136312585.1424  106217595.5344                   25939446.0834   25939435.2944
        36.3004         31.7004
 107424586.8414   83707504.4544                   20442219.5704   20442211.6634
        55.6004         51.4004
 123478111.3754   96216735.1684                   23497098.7204   23497093.2454
        43.9004         37.3004
 110017564.5034   85727998.2184                   20935651.9234   20935644.8654
        53.6004         46.1004
 128655679.7654  100251206.5214                   24482366.4724   24482357.5714
        42.7004         35.9004
 12 10 10 16 55 30.0000000  0 10G01G02G04G08G09G11G17G20G28G32
 121846933.0884   94945680.6194                   23186706.8614   23186696.1374
        43.8004         41.3004
 135395236.9394  105502794.9234                   25764867.5314   25764856.3284
        38.3004         32.7004
 116386521.9104   90690829.0504                   22147611.8894   22147603.3904
        49.4004         41.6004
 126003974.1024   98184910.8854                   23977785.9574   23977772.2704
        41.8004         33.0004
 116832401.9554   91038235.6704                   22232469.6804   22232461.5924
        48.2004         41.5004
 131033003.3614  102103650.2134                   24934769.8234   24934757.4354
        37.9004         33.9004
 107422974.3244   83706247.9514                   20441912.4684   20441905.4254
        56.1004         51.3004
 123430123.7874   96179342.2644                   23487967.3064   23487959.9904
        43.1004         38.3004
 110051245.1624   85754242.8704                   20942060.8204   20942054.3634
        53.5004         45.9004
 128648579.9994  100245674.2264                   24481016.7514   24481006.3394
        41.8004         38.1004
 12 10 10 16 56  0.0000000  0 10G01G02G04G08G09G11G17G20G28G32
 121938138.9354   95016750.0794                   23204061.0494   23204053.2404
        44.0004         40.0004
 135289102.4324  105420093.0694                   25744672.1334   25744657.6954
        39.3004         37.9004
 116284262.8044   90611146.6694                   22128152.5264   22128144.2494
        49.5004         41.2004
 126126050.7114   98280035.3564                   24001015.9104   24001004.5054
        42.7004         32.8004
 116776024.1514   90994304.9224                   22221741.9874   22221733.0144
        48.0004         41.5004
 131144971.8024  102190898.2224                   24956075.7904   24956063.8854
        37.2004         33.4004
 107421677.5414   83705237.4734                   20441665.5734   20441657.9974
        55.5004         51.3004
 123382580.6244   96142295.6304                   23478920.0304   23478912.1374
        42.9004         38.8004
 110085291.8524   85780772.7474                   20948540.0244   20948533.2024
        53.7004         45.7004
 128642005.4954  100240551.2244                   24479765.3304   24479753.7654
        41.6004         37.3004
 12 10 10 16 56 30.0000000  0 10G01G02G04G08G09G11G17G20G28G32
 122029640.2684   95088049.7774                   23221474.9014   23221463.0644
        43.5004         42.2004
 135182949.3374  105337376.5264                   25724471.6124   25724459.2764
        35.5004         34.7004
 116182316.0984   90531707.7214                   22108752.6654   22108744.0534
        49.6004         41.9004
 126248221.4374   98375233.0674                   24024265.1284   24024253.5904
        42.7004         35.3004
 116720259.8224   90950852.2094                   22211130.4824   22211119.8584
        47.5004         42.7004
 131257018.4274  102278207.1674                   24977394.8394   24977388.5984
        39.2004         31.7004
 107420696.2574   83704472.8294                   20441478.8754   20441471.8064
        56.2004         51.6004
 123335485.0864   96105597.8224                   23469959.1614   23469950.8224
        44.8004         40.5004
 110119705.3834   85807588.4654                   20955088.9394   20955082.0974
        53.8004         45.8004
 128635957.4214  100235838.4194                   24478614.4734   24478603.9774
        41.5004         38.0004
 12 10 10 16 57  0.0000000  0 10G01G02G04G08G09G11G17G20G28G32
 122121434.0714   95159577.3434                   23238943.5344   23238930.4924
        43.2004         43.3004
 135076779.1294  105254646.7374                   25704268.6894   25704254.1894
        34.7004         35.9004
 116080683.7984   90452513.7564                   22089412.4854   22089405.0454
        50.6004         42.0004
 126370482.8144   98470501.4554                   24047530.6444   24047521.2514
        43.4004         35.5004
 116665110.5394   90907878.7704                   22200636.2904   22200626.0404
        47.8004         42.6004
 131369140.9674  102365575.2344                   24998732.5484   24998725.4824
        38.5004         33.2004
 107420029.6914   83703953.4264                   20441351.9814   20441344.6364
        55.8004         51.7004
 123288839.1244   96069250.3314                   23461083.3284   23461072.7844
        43.9004         41.7004
 110154485.4934   85834689.8274                   20961707.1204   20961700.2174
        53.7004         45.9004
 128630436.1504  100231536.0694                   24477564.3074   24477551.5794
        40.0004         39.0004
 12 10 10 16 57 30.0000000  0 10G01G02G04G08G09G11G17G20G28G32
 122213517.8554   95231330.8714                   23256466.2064   23256452.1144
        42.7004         42.3004
 134970593.5934  105171904.8574                   25684061.2604   25684047.2314
        38.7004         32.4004
 115979368.7694   90373567.0164                   22070132.7524   22070125.9574
        50.9004         41.0004
 126492831.6314   98565837.9184                   24070814.2824   24070802.7424
        43.7004         37.1004
 116610578.7874   90865386.5034                   22190259.7374   22190250.3534
        49.0004         42.1004
 131481337.0344  102453000.6994                   25020083.4794   25020074.7364
        38.8004         34.2004
 107419677.3244   83703678.8514                   20441284.8664   20441277.7824
        56.1004         51.0004
 123242645.0744   96033254.9704                   23452292.4054   23452283.1674
        44.8004         41.0004
 110189632.7654   85862077.2874                   20968395.4174   20968388.4064
        53.4004         46.5004
 128625442.7154  100227645.0714                   24476614.4004   24476601.0234
        39.3004         40.3004
 12 10 10 16 58  0.0000000  0 10G01G02G04G08G09G11G17G20G28G32
 122305888.9754   95303308.2984                   23274042.8584   23274029.8634
        42.5004         41.2004
 134864393.9454  105089152.0714                   25663851.3874   25663838.9044
        34.9004         34.6004
 115878373.3814   90294869.3484                   22050914.4614   22050906.2224
        49.9004         41.3004
 126615265.1704   98661240.4104                   24094113.5744   24094101.0374
        43.1004         36.9004
 116556666.6024   90823377.0194                   22180001.0074   22179990.8994
        48.5004         42.1004
 131593604.6904  102540481.7984                   25041449.0434   25041438.9174
        38.7004         32.6004
 107419638.5724   83703648.6594                   20441277.1734   20441270.2754
        56.1004         50.8004
 123196905.0814   95997613.4134                   23443587.1884   23443580.0764
        45.3004         40.1004
 110225147.5024   85889751.0924                   20975154.1974   20975146.5594
        53.3004         47.1004
 128620977.7454  100224165.9004                   24475764.4504   24475750.3304
        38.5004         39.9004
 12 10 10 16 58 30.0000000  0 10G01G02G04G08G09G11G17G20G28G32
 122398544.9854   95375507.7434                   23291673.4674   23291663.7854
        44.3004         39.9004
 134758181.7874  105006389.3584                   25643640.7164   25643627.6464
        37.4004         32.7004
 115777700.4774   90216422.9864                   22031756.6664   22031749.2244
        50.5004         41.5004
 126737780.8664   98756706.9064                   24117427.3194   24117413.7384
        42.0004         37.7004
 116503376.2024   90781852.0554                   22169860.0054   22169850.4214
        48.7004         41.9004
 131705942.0204  102628017.3164                   25062821.5814   25062816.5114
        39.7004         31.7004
 107419913.3194   83703862.7434                   20441329.3034   20441323.0854
        56.4004         50.8004
 123151621.8034   95962327.7844                   23434971.3864   23434962.6504
        45.3004         40.2004
 110261029.9594   85917711.4294                   20981982.6264   20981975.3174
        54.0004         46.7004
 128617042.1734  100221099.1654                   24475015.1904   24475005.3124
        40.7004         38.1004
 12 10 10 16 59  0.0000000  0 10G01G02G04G08G09G11G17G20G28G32
 122491482.8734   95447926.8314                   23309360.0694   23309349.2904
        44.1004         40.1004
 134651959.1614  104923618.4574                   25623428.0114   25623414.2454
        41.3004         31.5004
 115677352.0054   90138229.4244                   22012661.3544   22012653.1084
        50.0004         41.8004
 126860375.3124   98852234.8034                   24140756.2024   24140741.8954
        40.9004         36.8004
 116450709.3524   90740812.9614                   22159836.9894   22159827.8344
        48.6004         41.9004
 131818346.2704  102715604.9374                   25084214.3964   25084205.3264
        39.2004         33.0004
 107420500.7794   83704320.5074                   20441441.2414   20441434.6754
        56.1004         51.0004
 123106797.1174   95927399.4404                   23426441.4464   23426430.5314
        43.3004         40.7004
 110297280.1604   85945958.3164                   20988880.6904   20988873.0754
        53.6004         46.8004
 128613636.2984  100218445.2254                   24474367.3524   24474354.7844
        38.9004         39.5004
 12 10 10 16 59 30.0000000  0 10G01G02G04G08G09G11G17G20G28G32
 122584700.2824   95520563.7084                   23327100.1564   23327087.8404
        43.6004         41.6004
 134545727.7504  104840840.6504                   25603211.9984   25603199.2114
        39.0004         31.8004
 115577330.7464   90060290.8314                   21993628.3114   21993619.2614
        50.1004         42.8004
 126983046.0104   98947822.1214                   24164099.4604   24164086.2014
        41.6004         35.0004
 116398668.2294   90700261.4394                   22149933.7714   22149926.5104
        49.7004         41.3004
 131930815.5674  102803243.2334                   25105615.0424   25105605.8814
        38.8004         33.9004
 107421400.3584   83705021.4724                   20441612.5414   20441605.6074
        56.0004         51.2004
 123062433.4374   95892830.3394                   23417999.4064   23417991.3634
        45.2004         40.4004
 110333898.3994   85974491.9914                   20995848.8444   20995841.6174
        53.7004         46.3004
 128610761.1324  100216204.8244                   24473819.7314   24473805.9364
        38.5004         40.5004
 12 10 10 17  0  0.0000000  0 10G01G02G04G08G09G11G17G20G28G32
 122678194.4544   95593416.1904                   23344892.6184   23344879.5444
        43.6004         42.2004
 134439488.8424  104758057.0374                   25582996.2944   25582983.3224
        40.6004         35.1004
 115477639.2484   89982609.1854                   21974657.3604   21974649.2624
        50.2004         42.7004
 127105789.5444   99043466.1604                   24187456.2214   24187442.4874
        40.6004         34.8004
 116347254.8324   90660199.0364                   22140149.5954   22140140.3464
        48.1004         42.3004
 132043347.8564  102890930.5924                   25127029.9334   25127021.8684
        38.7004         33.8004
 107422611.6594   83705965.3384                   20441843.1174   20441836.0444
        55.8004         51.2004
 123018532.7364   95858622.0074                   23409644.5574   23409637.1014
        45.1004         40.4004
 110370884.9874   86003312.6744                   21002887.3734   21002879.8224
        53.6004         46.3004
 128608417.1054  100214378.2434                   24473374.1544   24473362.8514
        38.8004         39.5004
